[
{"name":"Maranaho N'Guessan","director":"Maranaho N'Guessan","companyType":0,"industry":17,"isDissolved":true,"incorporated":"11/8/2017","dissolvedDate":"3/23/2021","companyNumber":"1-110530485","natureOfBusiness":1,"lat":53.7749432,"long":-3.028581,"zip":47,"key":"f63d:2eb1:a855:b962:81a6:ac34:e023:254666/1"},
{"name":"Bintou N'Guessan","director":"Bintou N'Guessan","companyType":4,"industry":17,"isDissolved":false,"incorporated":"4/11/2019","dissolvedDate":"3/23/2021","companyNumber":"1-456544567","natureOfBusiness":1,"lat":53.7749432,"long":-3.028581,"zip":46,"key":"f63d:2eb1:a855:b962:81a6:ac34:e023:25466s6/1"},
{"key":"e103:cbf4:611f:e1a2:d19c:75a:f2a:f219/15","name":"Feest Inc","director":"Sherline Wickham","companyType":3,"industry":5,"isDissolved":true,"incorporated":"5/27/1980","dissolvedDate":"1/21/2018","companyNumber":"44-3002999","natureOfBusiness":6,"lat":2.5045603,"long":73.3082308,"zip":5},
{"key":"d824:af25:2195:b277:f187:a956:bc77:c3b7/109","name":"Hayes, Romaguera and Ferry","director":"Robin Dallyn","companyType":1,"industry":9,"isDissolved":true,"incorporated":"9/9/1992","dissolvedDate":"11/30/2017","companyNumber":"37-2502044","natureOfBusiness":10,"lat":-6.8572408,"long":107.5088982,"zip":30},
{"key":"ac63:7462:49ef:583b:c5ad:9027:7031:94d1/19","name":"Hettinger Inc","director":"Carlin Moraleda","companyType":2,"industry":2,"isDissolved":true,"incorporated":"2/2/1979","dissolvedDate":"5/2/2021","companyNumber":"67-5476926","natureOfBusiness":3,"lat":43.4945737,"long":5.8978018,"zip":14},
{"key":"41e7:3775:c43a:17c:2b8b:d473:1bfe:12dc/20","name":"Homenick, Heathcote and Blick","director":"Ileana Rantoul","companyType":4,"industry":4,"isDissolved":true,"incorporated":"5/20/1985","dissolvedDate":"10/14/2016","companyNumber":"67-6121975","natureOfBusiness":5,"lat":41.9250632,"long":25.5508839,"zip":19},
{"key":"433f:1e69:2b37:7ec8:8ce8:432b:b130:ad4/59","name":"Schuster, Renner and Rutherford","director":"Burtie Dyer","companyType":3,"industry":9,"isDissolved":false,"incorporated":"8/3/1993","dissolvedDate":"5/13/2019","companyNumber":"16-5768268","natureOfBusiness":0,"lat":-6.9789789,"long":111.3888358,"zip":25},
{"key":"a451:d0f9:2edd:a7c4:a79a:486e:b0f0:d433/76","name":"Herzog LLC","director":"Philippine Ambroz","companyType":2,"industry":3,"isDissolved":false,"incorporated":"1/17/1980","dissolvedDate":"10/28/2022","companyNumber":"24-9750602","natureOfBusiness":10,"lat":48.9500557,"long":16.259316,"zip":6},
{"key":"ad66:3fa4:3152:7c62:2e5a:a4f9:fd9c:95ed/13","name":"Blanda Group","director":"Bonnee Hannay","companyType":2,"industry":1,"isDissolved":false,"incorporated":"4/28/2000","dissolvedDate":"5/28/2019","companyNumber":"43-9428317","natureOfBusiness":10,"lat":14.5665378,"long":121.1092186,"zip":9},
{"key":"6314:b680:3208:89e1:a4ee:fb43:5e1e:7e77/118","name":"Dickens LLC","director":"Allix Culverhouse","companyType":3,"industry":1,"isDissolved":true,"incorporated":"1/16/1984","dissolvedDate":"4/2/2020","companyNumber":"83-8652842","natureOfBusiness":11,"lat":-32.0355634,"long":-52.0918239,"zip":45},
{"key":"8a64:a189:3361:93d2:807e:9676:541d:fd5d/96","name":"Leffler Inc","director":"Raynell Batstone","companyType":1,"industry":1,"isDissolved":true,"incorporated":"1/11/1995","dissolvedDate":"10/21/2019","companyNumber":"58-1838674","natureOfBusiness":13,"lat":19.3803931,"long":-99.1476908,"zip":21},
{"key":"1c5d:7af1:1067:41a:ac6a:9506:d0bf:6e7f/90","name":"Hammes LLC","director":"Rosa Junkin","companyType":1,"industry":8,"isDissolved":false,"incorporated":"3/30/1986","dissolvedDate":"9/14/2016","companyNumber":"83-2426910","natureOfBusiness":14,"lat":15.3242773,"long":-91.4839442,"zip":37},
{"key":"e84a:de26:4f73:9c18:85f5:f623:d3fa:2d88/45","name":"Ratke-Balistreri","director":"Gae Couthard","companyType":0,"industry":5,"isDissolved":false,"incorporated":"3/14/1982","dissolvedDate":"9/24/2020","companyNumber":"96-3427857","natureOfBusiness":10,"lat":47.8225694,"long":0.3908219,"zip":5},
{"key":"60b:fcf6:66b:5ca9:80a1:1c01:43a3:a5af/110","name":"Haag, Corkery and Rutherford","director":"Bink Brockley","companyType":2,"industry":8,"isDissolved":false,"incorporated":"5/24/1992","dissolvedDate":"8/25/2016","companyNumber":"42-3152672","natureOfBusiness":11,"lat":-32.3927221,"long":-57.968819,"zip":24},
{"key":"5afc:cec6:43b8:a3c8:5bd8:282c:7bf9:be34/30","name":"Mertz LLC","director":"Frannie Dinis","companyType":2,"industry":0,"isDissolved":false,"incorporated":"10/20/2011","dissolvedDate":"3/5/2019","companyNumber":"48-5041988","natureOfBusiness":9,"lat":59.0842105,"long":159.9541642,"zip":31},
{"key":"b6b4:2db0:ffa1:886b:4cb9:aaf8:b683:5cc6/81","name":"Flatley, Greenholt and Boyle","director":"Ardelle Slyvester","companyType":1,"industry":4,"isDissolved":true,"incorporated":"7/26/2012","dissolvedDate":"1/24/2023","companyNumber":"88-5083354","natureOfBusiness":15,"lat":22.358169,"long":113.440958,"zip":44},
{"key":"20df:88ce:53dd:57fa:5ab6:8fe5:ef02:bf12/45","name":"Funk Group","director":"Carson Kohrding","companyType":0,"industry":8,"isDissolved":false,"incorporated":"1/10/1993","dissolvedDate":"7/18/2018","companyNumber":"72-4511764","natureOfBusiness":13,"lat":35.5349444,"long":140.1171164,"zip":16},
{"key":"40c1:44a0:dda5:8b76:5bcc:5aaa:f224:d745/127","name":"Armstrong LLC","director":"Arabele Browell","companyType":0,"industry":8,"isDissolved":false,"incorporated":"8/2/2009","dissolvedDate":"1/15/2016","companyNumber":"29-7378223","natureOfBusiness":5,"lat":48.9746444,"long":17.6475832,"zip":21},
{"key":"6a8e:b576:164d:a129:862b:10f3:cd1a:5195/96","name":"Olson, Champlin and Monahan","director":"Bridie Wedderburn","companyType":0,"industry":4,"isDissolved":false,"incorporated":"11/4/2007","dissolvedDate":"1/26/2023","companyNumber":"68-7123598","natureOfBusiness":3,"lat":18.6813049,"long":-99.1013498,"zip":20},
{"key":"fdb:8dc2:7573:b10a:320a:aaa0:feef:8ac/52","name":"Reinger-Walker","director":"Joy Sprouls","companyType":4,"industry":2,"isDissolved":false,"incorporated":"8/2/2004","dissolvedDate":"10/14/2019","companyNumber":"60-8409026","natureOfBusiness":6,"lat":17.8963357,"long":101.6578336,"zip":43},
{"key":"cfd1:bb1b:8303:5356:9b9c:e846:f52f:ed5c/40","name":"Kub Inc","director":"Tiertza Weatherup","companyType":3,"industry":5,"isDissolved":true,"incorporated":"9/22/2009","dissolvedDate":"7/7/2019","companyNumber":"73-0624302","natureOfBusiness":11,"lat":-6.4712737,"long":110.8171082,"zip":46},
{"key":"df33:679a:3683:98c5:20da:cf4a:e02d:6695/86","name":"Witting-Crooks","director":"Opaline Crickett","companyType":2,"industry":7,"isDissolved":false,"incorporated":"3/16/2008","dissolvedDate":"10/31/2023","companyNumber":"33-3486657","natureOfBusiness":0,"lat":-6.8013457,"long":111.4126837,"zip":0},
{"key":"1f76:2abb:c7c:6589:20d8:1644:b2e6:e84/115","name":"Kovacek Group","director":"Connor Crombie","companyType":1,"industry":4,"isDissolved":false,"incorporated":"7/14/1997","dissolvedDate":"2/13/2017","companyNumber":"97-7915785","natureOfBusiness":4,"lat":31.6166667,"long":130.3333333,"zip":27},
{"key":"5258:7e64:8158:f58c:d6d5:d4a3:8750:d903/59","name":"Koelpin-Corkery","director":"Cchaddie Gillison","companyType":4,"industry":5,"isDissolved":true,"incorporated":"11/20/2004","dissolvedDate":"1/22/2018","companyNumber":"41-9279899","natureOfBusiness":10,"lat":38.4305306,"long":-8.635246,"zip":23},
{"key":"4b4:1383:75b0:d810:3046:88b2:16e0:d38e/51","name":"Schuppe, Cummerata and Gleason","director":"Erasmus Tait","companyType":4,"industry":1,"isDissolved":true,"incorporated":"3/16/1986","dissolvedDate":"9/14/2021","companyNumber":"57-4073860","natureOfBusiness":9,"lat":15.2110438,"long":51.2500919,"zip":32},
{"key":"5ff2:8009:5147:ba40:c250:d03d:4e96:7d4b/118","name":"Strosin, Schamberger and Moore","director":"Kimmy Hatherell","companyType":0,"industry":2,"isDissolved":true,"incorporated":"12/22/1981","dissolvedDate":"1/6/2016","companyNumber":"90-5479994","natureOfBusiness":14,"lat":17.1333332,"long":122.1333313,"zip":37},
{"key":"78b0:e0bc:6ea1:cef9:9128:5b6:cae1:937c/69","name":"Rice, Mosciski and Erdman","director":"Merralee Ferrelli","companyType":0,"industry":1,"isDissolved":true,"incorporated":"9/20/1989","dissolvedDate":"11/23/2015","companyNumber":"79-4662347","natureOfBusiness":5,"lat":14.061619,"long":46.914966,"zip":22},
{"key":"f3ce:1d45:f15:66b7:13b3:86a:59e8:894/2","name":"Quitzon, Bayer and Davis","director":"Gabbie Nisen","companyType":3,"industry":7,"isDissolved":false,"incorporated":"10/18/2003","dissolvedDate":"5/19/2016","companyNumber":"67-6599362","natureOfBusiness":12,"lat":-8.3654775,"long":113.5371368,"zip":20},
{"key":"9d4e:2a63:3f44:a8c8:b089:14dc:4a9a:2a63/62","name":"Marquardt LLC","director":"Brady Bolzmann","companyType":2,"industry":7,"isDissolved":true,"incorporated":"9/24/1994","dissolvedDate":"6/29/2021","companyNumber":"25-9532818","natureOfBusiness":13,"lat":-34.7611766,"long":-56.3628409,"zip":25},
{"key":"a05a:a3e6:9cad:a265:ccaf:6e00:908b:b84b/58","name":"Mayer LLC","director":"Karia Sowood","companyType":1,"industry":7,"isDissolved":false,"incorporated":"5/2/2002","dissolvedDate":"8/31/2016","companyNumber":"34-3612715","natureOfBusiness":5,"lat":40.6588133,"long":-7.8303977,"zip":24},
{"key":"c4b4:a25f:1945:9d41:e349:1c20:dc9f:2503/118","name":"Koepp, Reilly and Considine","director":"Codie Pleaden","companyType":3,"industry":3,"isDissolved":false,"incorporated":"12/2/1998","dissolvedDate":"11/18/2023","companyNumber":"13-6032658","natureOfBusiness":14,"lat":-6.3474028,"long":106.6825417,"zip":35},
{"key":"7fb5:c8b8:6998:3bc5:8cba:2681:ce7f:4853/10","name":"Bailey-Koss","director":"Kathrine Emmett","companyType":1,"industry":1,"isDissolved":false,"incorporated":"5/30/1982","dissolvedDate":"11/20/2016","companyNumber":"47-0640388","natureOfBusiness":9,"lat":36.3450691,"long":140.3559256,"zip":23},
{"key":"2db9:c303:d3fb:e4fd:9240:8cb4:d8d6:90e6/23","name":"Ernser-Hessel","director":"Neila Fowell","companyType":2,"industry":5,"isDissolved":false,"incorporated":"3/14/2000","dissolvedDate":"4/19/2018","companyNumber":"64-8661104","natureOfBusiness":13,"lat":30.108216,"long":104.677091,"zip":12},
{"key":"da54:1399:6730:2c54:9446:f2c7:7d73:2247/95","name":"Feeney-Bernier","director":"Valentina Bulfoot","companyType":3,"industry":4,"isDissolved":true,"incorporated":"11/28/2013","dissolvedDate":"8/2/2020","companyNumber":"46-5932814","natureOfBusiness":0,"lat":-5.1291727,"long":-67.1894488,"zip":18},
{"key":"9c16:4627:be64:1414:fd49:377b:24a5:83c6/22","name":"Fay, O'Connell and Beer","director":"Em Tyght","companyType":2,"industry":7,"isDissolved":false,"incorporated":"6/20/1996","dissolvedDate":"3/26/2017","companyNumber":"56-0705055","natureOfBusiness":11,"lat":27.121652,"long":107.047128,"zip":35},
{"key":"c203:cbff:a32c:b60c:d148:7253:1209:fb7f/98","name":"Mills, Rogahn and Considine","director":"Rollin Cato","companyType":3,"industry":8,"isDissolved":false,"incorporated":"5/18/1982","dissolvedDate":"3/25/2015","companyNumber":"03-4698212","natureOfBusiness":6,"lat":36.7048972,"long":52.6546785,"zip":20},
{"key":"4a44:dba9:6de1:42f2:83e0:2c19:e3fe:dece/1","name":"Bashirian, Wilderman and Hegmann","director":"Lorin Colledge","companyType":3,"industry":9,"isDissolved":true,"incorporated":"8/13/1979","dissolvedDate":"6/3/2018","companyNumber":"17-5735744","natureOfBusiness":16,"lat":-6.8933,"long":111.6899,"zip":20},
{"key":"312e:a14a:83b4:5282:5333:9bd:6e83:d001/33","name":"McKenzie-Romaguera","director":"Sebastiano Esselin","companyType":1,"industry":8,"isDissolved":false,"incorporated":"1/3/1998","dissolvedDate":"3/3/2021","companyNumber":"39-5596401","natureOfBusiness":3,"lat":26.272008,"long":118.882455,"zip":21},
{"key":"436a:35f0:c0d0:b548:ba19:34da:3c74:20a8/115","name":"O'Kon LLC","director":"Sonia Ogus","companyType":2,"industry":4,"isDissolved":true,"incorporated":"6/21/2000","dissolvedDate":"7/24/2019","companyNumber":"74-7545590","natureOfBusiness":2,"lat":40.42,"long":-104.7099999,"zip":41},
{"key":"3eb1:14f5:18bb:9dc1:be94:ceaf:2edf:ecc3/13","name":"Schimmel, Cartwright and Lehner","director":"Abraham Farrow","companyType":0,"industry":8,"isDissolved":true,"incorporated":"9/1/1998","dissolvedDate":"9/12/2022","companyNumber":"57-4261463","natureOfBusiness":5,"lat":41.3743894,"long":-7.6099869,"zip":8},
{"key":"1d4:d44:639e:6601:bb5a:b6f6:96aa:d1e7/55","name":"Larkin and Sons","director":"Eimile Duckitt","companyType":0,"industry":2,"isDissolved":false,"incorporated":"5/26/1989","dissolvedDate":"1/21/2017","companyNumber":"58-0228052","natureOfBusiness":0,"lat":39.982718,"long":117.078294,"zip":1},
{"key":"8fec:e0db:bf64:3d29:be24:99bc:f0ca:1a11/1","name":"Hegmann-Leffler","director":"Nicoli Georgi","companyType":3,"industry":3,"isDissolved":true,"incorporated":"5/23/2003","dissolvedDate":"11/21/2018","companyNumber":"44-1895680","natureOfBusiness":2,"lat":31.7311971,"long":117.2313179,"zip":18},
{"key":"b65:4dce:bbc3:1243:c92e:d8e0:c44f:67f0/110","name":"Walter, Hilpert and Cassin","director":"Fionnula Polden","companyType":1,"industry":1,"isDissolved":false,"incorporated":"6/23/2007","dissolvedDate":"12/2/2021","companyNumber":"59-9885653","natureOfBusiness":13,"lat":31.717564,"long":119.382381,"zip":29},
{"key":"b4fe:8afb:a1fb:d14e:a052:6b4b:44c4:80eb/77","name":"Kemmer-Metz","director":"Abran Karpets","companyType":1,"industry":8,"isDissolved":false,"incorporated":"12/16/1989","dissolvedDate":"2/27/2016","companyNumber":"74-0810988","natureOfBusiness":7,"lat":51.13737,"long":20.57188,"zip":35},
{"key":"c5bf:e977:5e76:f29e:422f:867c:e290:47b3/122","name":"Anderson, Halvorson and Walter","director":"Lazarus Fluit","companyType":2,"industry":9,"isDissolved":false,"incorporated":"6/12/1992","dissolvedDate":"8/24/2017","companyNumber":"78-9158228","natureOfBusiness":12,"lat":13.4211757,"long":8.4760154,"zip":10},
{"key":"ebd1:9f1d:645b:8941:dc36:cd01:bdac:7450/118","name":"Klocko and Sons","director":"Tabor Stranaghan","companyType":1,"industry":0,"isDissolved":false,"incorporated":"3/8/2009","dissolvedDate":"12/2/2020","companyNumber":"02-4939346","natureOfBusiness":8,"lat":11.313985,"long":10.465234,"zip":37},
{"key":"7392:ca3e:cbb2:cc10:d2c1:f764:3010:39df/6","name":"Nolan Group","director":"Britta Siflet","companyType":3,"industry":9,"isDissolved":false,"incorporated":"3/13/1981","dissolvedDate":"12/28/2023","companyNumber":"14-6819583","natureOfBusiness":11,"lat":22.517585,"long":113.39277,"zip":30},
{"key":"cceb:4442:924e:bcfd:603b:e03a:2351:393d/45","name":"Wolf LLC","director":"Arley Treasure","companyType":3,"industry":7,"isDissolved":false,"incorporated":"10/29/2000","dissolvedDate":"10/3/2015","companyNumber":"46-8536041","natureOfBusiness":9,"lat":57.9869523,"long":16.3149736,"zip":11},
{"key":"7d9:9c68:b6c1:16a6:bf14:ebe:8c82:46e/119","name":"Mueller, Orn and Bartoletti","director":"Freddie Verissimo","companyType":2,"industry":8,"isDissolved":false,"incorporated":"6/5/2007","dissolvedDate":"11/29/2018","companyNumber":"73-3550752","natureOfBusiness":7,"lat":34.56128,"long":105.58335,"zip":15},
{"key":"1710:668e:b489:d0a1:e181:50d:4b3e:bf02/104","name":"Beatty Inc","director":"Gilburt Herries","companyType":4,"industry":0,"isDissolved":true,"incorporated":"11/1/1982","dissolvedDate":"11/12/2021","companyNumber":"34-5794494","natureOfBusiness":4,"lat":34.0874479,"long":-5.1784019,"zip":27},
{"key":"377b:8310:323:1bdb:ccb2:957b:a107:fd20/54","name":"Watsica, Turcotte and Rosenbaum","director":"Sabrina Risom","companyType":3,"industry":9,"isDissolved":false,"incorporated":"1/12/1986","dissolvedDate":"12/27/2016","companyNumber":"73-1133541","natureOfBusiness":2,"lat":50.81011,"long":-121.3246,"zip":8},
{"key":"13e:e79a:6faf:d273:e8fd:3bd1:d48b:5040/102","name":"Corwin-Hegmann","director":"Bunnie McReidy","companyType":3,"industry":0,"isDissolved":false,"incorporated":"12/14/2011","dissolvedDate":"1/5/2024","companyNumber":"48-8221414","natureOfBusiness":10,"lat":22.279062,"long":114.174463,"zip":38},
{"key":"bda:2f97:1136:d372:5d30:3bb5:24d5:4ca2/110","name":"Klocko, Rau and Ratke","director":"Myer Brideaux","companyType":4,"industry":9,"isDissolved":false,"incorporated":"7/29/2009","dissolvedDate":"6/16/2019","companyNumber":"25-3791295","natureOfBusiness":10,"lat":48.120484,"long":-1.695391,"zip":28},
{"key":"aacf:408c:96e1:18f:382a:8164:d25e:2cc5/76","name":"Homenick, Turcotte and Toy","director":"Tobiah Solman","companyType":2,"industry":9,"isDissolved":false,"incorporated":"4/7/2004","dissolvedDate":"1/12/2022","companyNumber":"96-3635335","natureOfBusiness":12,"lat":29.895386,"long":106.570188,"zip":45},
{"key":"c329:3f6b:108a:67e3:14e0:8f57:99b1:f844/8","name":"Mitchell LLC","director":"Bear Gavozzi","companyType":1,"industry":8,"isDissolved":true,"incorporated":"4/19/1980","dissolvedDate":"10/9/2016","companyNumber":"09-2415192","natureOfBusiness":5,"lat":37.617937,"long":120.395988,"zip":16},
{"key":"acf4:ccdd:8e2d:7942:87f1:18ee:3374:862b/35","name":"Mertz and Sons","director":"Boot Vern","companyType":3,"industry":5,"isDissolved":false,"incorporated":"12/15/1983","dissolvedDate":"11/29/2015","companyNumber":"61-0840377","natureOfBusiness":7,"lat":13.8570986,"long":-61.0573248,"zip":13},
{"key":"47ae:1152:5b11:2fae:9931:c9fb:b884:f36e/75","name":"Bradtke and Sons","director":"Cirstoforo Capstake","companyType":0,"industry":7,"isDissolved":false,"incorporated":"10/20/1980","dissolvedDate":"12/3/2018","companyNumber":"29-7755510","natureOfBusiness":13,"lat":49.0096906,"long":2.5479245,"zip":7},
{"key":"bf5c:2dd2:27bd:7b5f:f99e:c84a:4c62:69d3/112","name":"Waters LLC","director":"Marcile Duetsche","companyType":0,"industry":6,"isDissolved":true,"incorporated":"2/12/2012","dissolvedDate":"11/9/2018","companyNumber":"00-2231169","natureOfBusiness":10,"lat":-6.3818749,"long":105.8862812,"zip":42},
{"key":"8b7f:d2ca:e91b:ef:f0a7:98ac:7b84:28bc/122","name":"Rogahn-Jast","director":"Kalie Parratt","companyType":0,"industry":4,"isDissolved":false,"incorporated":"6/21/2009","dissolvedDate":"3/25/2017","companyNumber":"75-0189881","natureOfBusiness":10,"lat":34.6796489,"long":132.5509347,"zip":31},
{"key":"bb71:d60e:d7d4:4280:2770:857e:3d3b:7642/26","name":"McLaughlin, Rogahn and Konopelski","director":"Mathilda Maddyson","companyType":2,"industry":1,"isDissolved":false,"incorporated":"10/24/1990","dissolvedDate":"10/20/2021","companyNumber":"72-4992329","natureOfBusiness":7,"lat":47.6264367,"long":34.5297956,"zip":18},
{"key":"2868:9ed:637:b2df:6dfb:7da7:3a21:5b61/61","name":"Casper-Shanahan","director":"Bary Meredyth","companyType":4,"industry":1,"isDissolved":false,"incorporated":"7/26/1990","dissolvedDate":"11/4/2022","companyNumber":"36-2163555","natureOfBusiness":4,"lat":-28.4425713,"long":-65.7655162,"zip":39},
{"key":"2bfd:e375:1a8:b2d6:3a06:7f55:1904:e040/79","name":"Lindgren-Bahringer","director":"Standford Gowrich","companyType":4,"industry":1,"isDissolved":true,"incorporated":"1/1/2004","dissolvedDate":"1/3/2022","companyNumber":"24-5589929","natureOfBusiness":13,"lat":45.6542789,"long":-74.3481941,"zip":33},
{"key":"5f4:7101:7c91:b397:278:5084:5c66:b39a/23","name":"Donnelly Group","director":"Nicol Trevino","companyType":3,"industry":8,"isDissolved":true,"incorporated":"6/24/2008","dissolvedDate":"1/24/2017","companyNumber":"24-3187984","natureOfBusiness":5,"lat":59.3582766,"long":17.8838787,"zip":42},
{"key":"af51:2b64:acbe:6596:83ac:64d3:9e58:f826/10","name":"Fay LLC","director":"Jolee Voss","companyType":1,"industry":0,"isDissolved":true,"incorporated":"7/19/1982","dissolvedDate":"4/6/2017","companyNumber":"21-2971807","natureOfBusiness":12,"lat":58.7103464,"long":50.1704702,"zip":40},
{"key":"5219:362d:3f79:c31c:2eb7:107c:dc28:5d31/31","name":"Sanford Inc","director":"Gus Tattersdill","companyType":4,"industry":0,"isDissolved":true,"incorporated":"8/13/2007","dissolvedDate":"5/26/2015","companyNumber":"71-3446650","natureOfBusiness":5,"lat":43.916823,"long":81.324136,"zip":10},
{"key":"578c:b7cd:528f:5d07:1d37:1a23:5d93:fb69/58","name":"Cartwright, Ratke and Wiza","director":"Davita Langelaan","companyType":2,"industry":1,"isDissolved":true,"incorporated":"6/9/1981","dissolvedDate":"9/27/2022","companyNumber":"90-1853933","natureOfBusiness":9,"lat":29.809116,"long":119.781131,"zip":22},
{"key":"19c6:2dcb:a910:b4d4:f927:2fa1:5efc:77cb/39","name":"Hayes Inc","director":"Cammy Pollett","companyType":4,"industry":6,"isDissolved":false,"incorporated":"11/24/1990","dissolvedDate":"9/19/2015","companyNumber":"93-7761308","natureOfBusiness":10,"lat":-26.1317461,"long":28.2953986,"zip":13},
{"key":"4a15:c381:d426:258e:9274:f57a:4bd2:4af5/117","name":"Runolfsdottir, Marks and Kuhlman","director":"Ag Brosnan","companyType":1,"industry":2,"isDissolved":true,"incorporated":"5/19/1981","dissolvedDate":"12/17/2021","companyNumber":"36-8770279","natureOfBusiness":0,"lat":44.4693308,"long":19.8223207,"zip":28},
{"key":"e3a7:50c1:51e7:3116:36e0:5135:cc29:150b/77","name":"Glover-Shanahan","director":"Cherilyn Syers","companyType":3,"industry":4,"isDissolved":false,"incorporated":"6/6/2008","dissolvedDate":"9/20/2019","companyNumber":"89-2053490","natureOfBusiness":10,"lat":41.3337534,"long":19.8753308,"zip":46},
{"key":"d47e:dd50:dffc:4014:b9df:8639:b673:acdf/90","name":"Dooley, Spencer and Will","director":"Elyse Ruecastle","companyType":2,"industry":5,"isDissolved":false,"incorporated":"12/2/2002","dissolvedDate":"4/16/2021","companyNumber":"34-4053217","natureOfBusiness":13,"lat":50.9076315,"long":128.4136847,"zip":11},
{"key":"feaa:69b0:bad5:bd5b:10e1:14d2:2dce:31e4/35","name":"Bradtke, Marvin and Borer","director":"Jammal Pountain","companyType":0,"industry":3,"isDissolved":true,"incorporated":"9/11/1988","dissolvedDate":"12/16/2021","companyNumber":"87-4320406","natureOfBusiness":11,"lat":13.5213331,"long":120.9787095,"zip":16},
{"key":"ee57:191c:b99b:2bf5:1b13:c7aa:f18c:f630/124","name":"Bailey-MacGyver","director":"Gifford Beddingham","companyType":0,"industry":3,"isDissolved":true,"incorporated":"11/26/1980","dissolvedDate":"4/16/2016","companyNumber":"70-9725165","natureOfBusiness":1,"lat":36.854929,"long":114.503339,"zip":6},
{"key":"214e:2a83:aa7b:535d:b65a:4967:19e8:426c/118","name":"Schiller, Larson and Hettinger","director":"Gray Peatheyjohns","companyType":4,"industry":1,"isDissolved":false,"incorporated":"1/23/1993","dissolvedDate":"12/5/2019","companyNumber":"77-3432066","natureOfBusiness":3,"lat":-7.2541395,"long":112.7703313,"zip":6},
{"key":"b1ba:e73b:26cd:a90b:3b9:7cda:6ae6:50b2/2","name":"Crist and Sons","director":"Worden Hallick","companyType":3,"industry":1,"isDissolved":false,"incorporated":"12/29/1995","dissolvedDate":"1/26/2022","companyNumber":"81-4664300","natureOfBusiness":5,"lat":-14.8258317,"long":-64.9000247,"zip":40},
{"key":"98c6:b1ea:b87a:a56c:8f02:9c4f:8036:ddb9/27","name":"Prosacco-Daniel","director":"Cortie Sarginson","companyType":1,"industry":1,"isDissolved":false,"incorporated":"11/5/1980","dissolvedDate":"11/4/2017","companyNumber":"80-4954156","natureOfBusiness":15,"lat":53.806868,"long":-9.1327273,"zip":32},
{"key":"da9c:1a7e:9354:ae65:9f46:c9ee:6225:9a25/88","name":"Koss, Jones and Mills","director":"Vinnie Font","companyType":1,"industry":3,"isDissolved":true,"incorporated":"7/25/1985","dissolvedDate":"5/7/2016","companyNumber":"33-6410048","natureOfBusiness":6,"lat":51.2757594,"long":17.8095674,"zip":1},
{"key":"951a:ebb5:7ad5:cc3d:145b:7646:7bac:5332/72","name":"Huels-Bergnaum","director":"Philly Spinelli","companyType":3,"industry":8,"isDissolved":true,"incorporated":"11/25/2009","dissolvedDate":"9/25/2023","companyNumber":"68-7377290","natureOfBusiness":0,"lat":-23.3233727,"long":-46.7294577,"zip":33},
{"key":"d677:91c6:356:32fa:740:28a8:f703:6321/100","name":"Hoeger, Schamberger and Veum","director":"Gus Dahmke","companyType":1,"industry":2,"isDissolved":false,"incorporated":"2/19/1999","dissolvedDate":"2/16/2021","companyNumber":"71-0930058","natureOfBusiness":8,"lat":43.1406976,"long":20.5213617,"zip":4},
{"key":"50f7:286a:cac1:aff4:49fe:7a39:a9c8:5378/99","name":"Larson Inc","director":"Tamara Longmuir","companyType":0,"industry":0,"isDissolved":false,"incorporated":"12/30/2005","dissolvedDate":"11/4/2017","companyNumber":"58-4162352","natureOfBusiness":4,"lat":10.2376599,"long":10.1472181,"zip":16},
{"key":"deac:995f:b8dc:46b7:9ca7:fbfc:a223:ab61/10","name":"Fritsch, Herzog and Green","director":"Shara Goncaves","companyType":3,"industry":2,"isDissolved":true,"incorporated":"7/29/1993","dissolvedDate":"3/14/2023","companyNumber":"26-1077078","natureOfBusiness":2,"lat":60.0456385,"long":30.3403569,"zip":19},
{"key":"9829:24:f3e5:d9d1:ad01:34b1:1d2c:79aa/20","name":"Balistreri, Heathcote and Zemlak","director":"Smith Ballsdon","companyType":1,"industry":7,"isDissolved":false,"incorporated":"5/2/1978","dissolvedDate":"12/4/2016","companyNumber":"72-1362265","natureOfBusiness":1,"lat":10.8226522,"long":105.6647142,"zip":0},
{"key":"d74e:cabe:10d9:bf4c:8bf0:24c6:dabc:cbfe/87","name":"Hansen Inc","director":"Natty Farherty","companyType":1,"industry":6,"isDissolved":true,"incorporated":"9/9/2006","dissolvedDate":"1/13/2020","companyNumber":"64-2706104","natureOfBusiness":4,"lat":37.2425649,"long":111.8568586,"zip":9},
{"key":"67da:4900:fc3e:dd43:c077:f2e2:9947:190/17","name":"Welch Group","director":"Justina Snaden","companyType":1,"industry":0,"isDissolved":true,"incorporated":"12/10/2004","dissolvedDate":"7/25/2021","companyNumber":"61-1712598","natureOfBusiness":12,"lat":46.71327,"long":96.52588,"zip":34},
{"key":"14fe:4b24:f690:3ba8:f86:7d6f:532b:140c/6","name":"Shanahan, Schmidt and Smith","director":"Maia Basham","companyType":0,"industry":0,"isDissolved":false,"incorporated":"4/28/1995","dissolvedDate":"12/18/2015","companyNumber":"30-6327086","natureOfBusiness":14,"lat":28.5107872,"long":-81.4828198,"zip":1},
{"key":"9ed0:a9bd:61e9:55e0:7457:42c0:77d6:6c29/25","name":"Hoppe, Goodwin and Auer","director":"Mignonne Gairdner","companyType":3,"industry":0,"isDissolved":false,"incorporated":"6/19/1984","dissolvedDate":"7/17/2017","companyNumber":"33-2599266","natureOfBusiness":11,"lat":22.898014,"long":111.773407,"zip":11},
{"key":"2f39:62bc:6af6:4e76:2ea2:b4fa:d580:85ec/118","name":"Terry-Kris","director":"Carmela Benmore","companyType":3,"industry":3,"isDissolved":false,"incorporated":"2/23/2009","dissolvedDate":"1/24/2023","companyNumber":"39-1059435","natureOfBusiness":0,"lat":31.4867981,"long":73.8207154,"zip":1},
{"key":"32eb:bb4:418:eb31:3deb:3725:6c0f:f420/56","name":"Larson LLC","director":"Bettye Adrianello","companyType":2,"industry":9,"isDissolved":false,"incorporated":"10/10/2008","dissolvedDate":"6/11/2021","companyNumber":"86-7842427","natureOfBusiness":13,"lat":55.0500502,"long":26.313132,"zip":44},
{"key":"e2df:3c60:3936:81f1:94af:2023:e631:1014/127","name":"Bernier-Schultz","director":"Eddy Abramovici","companyType":2,"industry":8,"isDissolved":true,"incorporated":"3/30/1989","dissolvedDate":"4/23/2022","companyNumber":"15-7908216","natureOfBusiness":0,"lat":-6.7347875,"long":111.4648515,"zip":37},
{"key":"175c:24ad:13fc:cf22:31bc:a518:8d6e:3405/118","name":"Mayer and Sons","director":"Cele Fortnam","companyType":3,"industry":4,"isDissolved":false,"incorporated":"11/8/2003","dissolvedDate":"8/16/2020","companyNumber":"10-8715564","natureOfBusiness":16,"lat":48.47092,"long":24.94678,"zip":26},
{"key":"55ef:86ae:8cb6:959f:b2e5:bac3:c1a5:c0c8/19","name":"Thiel, Torphy and Crist","director":"Maurits Cromie","companyType":1,"industry":0,"isDissolved":false,"incorporated":"5/8/1997","dissolvedDate":"12/13/2018","companyNumber":"46-4652888","natureOfBusiness":8,"lat":33.195993,"long":105.606648,"zip":5},
{"key":"c0b7:bd8a:dc77:bc6e:a5c9:7b1a:2237:d4be/33","name":"Abshire-Kuhic","director":"Noni Braybrooke","companyType":0,"industry":1,"isDissolved":false,"incorporated":"1/25/1998","dissolvedDate":"3/31/2019","companyNumber":"67-0787183","natureOfBusiness":16,"lat":16.663904,"long":121.451539,"zip":40},
{"key":"41af:49c9:def9:949a:d86:2bad:a7d8:af13/107","name":"Kilback, Metz and Medhurst","director":"Jo-anne Finden","companyType":0,"industry":4,"isDissolved":true,"incorporated":"11/11/2001","dissolvedDate":"8/20/2017","companyNumber":"33-8056856","natureOfBusiness":14,"lat":-8.3932,"long":114.8028,"zip":4},
{"key":"30af:349e:f86f:542:5bd1:2f71:c3e0:23cb/27","name":"O'Keefe, Bashirian and Olson","director":"Clara Huff","companyType":3,"industry":0,"isDissolved":true,"incorporated":"5/2/1983","dissolvedDate":"4/18/2015","companyNumber":"36-1932934","natureOfBusiness":10,"lat":34.26545,"long":67.34516,"zip":31},
{"key":"4598:ce9a:929:c6e:221d:1ad7:8a6a:8ca4/91","name":"Cronin, Fadel and Schamberger","director":"Muire Le Page","companyType":2,"industry":5,"isDissolved":true,"incorporated":"1/4/1979","dissolvedDate":"7/10/2018","companyNumber":"67-6248006","natureOfBusiness":11,"lat":-8.3256099,"long":112.256285,"zip":18},
{"key":"b849:9448:e792:b92e:6b8f:6c3b:c3fb:a0cd/49","name":"Legros, Dach and Wehner","director":"Ransom Lummis","companyType":4,"industry":6,"isDissolved":false,"incorporated":"10/8/1980","dissolvedDate":"2/6/2015","companyNumber":"22-0876347","natureOfBusiness":3,"lat":-21.2915055,"long":-50.3436312,"zip":38},
{"key":"4d53:8072:6178:4d4f:a4d0:ccd8:33f5:63c8/72","name":"Frami-Ledner","director":"Selle Nottle","companyType":1,"industry":5,"isDissolved":false,"incorporated":"9/6/1982","dissolvedDate":"5/12/2015","companyNumber":"87-8020258","natureOfBusiness":14,"lat":-3.8008893,"long":103.3587288,"zip":18},
{"key":"36:1ef7:d009:4fd8:4a55:c0e3:b42e:9d12/125","name":"Ruecker, Kerluke and O'Reilly","director":"Christoforo McCaskill","companyType":1,"industry":2,"isDissolved":false,"incorporated":"9/14/1996","dissolvedDate":"7/24/2015","companyNumber":"88-7141371","natureOfBusiness":10,"lat":34.520447,"long":50.0059337,"zip":28},
{"key":"f949:88ae:74a0:2f7:398d:72fa:5fb7:335f/10","name":"Armstrong LLC","director":"Talia Bassford","companyType":4,"industry":7,"isDissolved":false,"incorporated":"11/27/1983","dissolvedDate":"4/9/2022","companyNumber":"94-7552048","natureOfBusiness":7,"lat":40.5845053,"long":-8.0854006,"zip":3},
{"key":"6b61:a1c6:b02:1d:43ce:ae04:155a:68d5/3","name":"Rowe, Konopelski and Koch","director":"Kary Fensome","companyType":2,"industry":5,"isDissolved":false,"incorporated":"1/19/2003","dissolvedDate":"10/3/2017","companyNumber":"09-6768151","natureOfBusiness":11,"lat":51.4464511,"long":22.4628464,"zip":42},
{"key":"f228:63e1:c36c:abdd:46a4:5c:ca25:618b/53","name":"Hahn LLC","director":"Salvidor Forty","companyType":2,"industry":0,"isDissolved":true,"incorporated":"3/9/1979","dissolvedDate":"3/13/2017","companyNumber":"12-3637015","natureOfBusiness":7,"lat":-0.3172669,"long":100.4367235,"zip":18},
{"key":"1c7a:130a:22d3:dbb:7f8f:e713:a3f3:8913/95","name":"McClure-Thiel","director":"Evvy Dudman","companyType":0,"industry":8,"isDissolved":false,"incorporated":"5/18/1991","dissolvedDate":"12/23/2019","companyNumber":"02-7578423","natureOfBusiness":10,"lat":52.99166,"long":17.4884299,"zip":8},
{"key":"59d9:d1d7:801d:b66b:5872:12d:a672:a5dc/122","name":"Becker-Koch","director":"Pedro Sale","companyType":1,"industry":0,"isDissolved":false,"incorporated":"7/11/1991","dissolvedDate":"5/13/2022","companyNumber":"81-1723047","natureOfBusiness":5,"lat":25.5025179,"long":49.5999539,"zip":44},
{"key":"22b1:6323:564f:8ea1:ecc0:c94f:ffb7:634/119","name":"Wisoky and Sons","director":"Muriel Oag","companyType":3,"industry":7,"isDissolved":false,"incorporated":"2/1/1995","dissolvedDate":"7/8/2015","companyNumber":"57-2492958","natureOfBusiness":1,"lat":-6.892162,"long":109.6646748,"zip":32},
{"key":"1331:4b43:6248:4985:a378:2899:d929:3c81/32","name":"Fahey Group","director":"Tish Salters","companyType":0,"industry":0,"isDissolved":false,"incorporated":"3/31/1982","dissolvedDate":"4/9/2020","companyNumber":"76-0493002","natureOfBusiness":10,"lat":48.0044582,"long":7.8374651,"zip":21},
{"key":"cf02:d52b:8aa0:57b0:495b:7761:f328:aa74/99","name":"Cormier-Dickinson","director":"Sean Fallanche","companyType":3,"industry":2,"isDissolved":true,"incorporated":"12/27/2003","dissolvedDate":"8/26/2021","companyNumber":"54-4384867","natureOfBusiness":3,"lat":-6.4306844,"long":106.7175669,"zip":26},
{"key":"9a52:6cb9:bdc8:95a4:783b:c30b:4834:cb11/124","name":"Bashirian-Bernhard","director":"Valentino Chastanet","companyType":2,"industry":9,"isDissolved":true,"incorporated":"11/27/1986","dissolvedDate":"12/17/2017","companyNumber":"41-3242085","natureOfBusiness":3,"lat":15.823909,"long":103.8911999,"zip":17},
{"key":"351d:ff45:bd41:c69a:cc95:3152:8ae4:f3c6/68","name":"Bradtke, Pouros and VonRueden","director":"Alonso Avramow","companyType":4,"industry":0,"isDissolved":true,"incorporated":"5/9/1995","dissolvedDate":"12/19/2015","companyNumber":"47-8231148","natureOfBusiness":8,"lat":48.7885683,"long":2.3884283,"zip":44},
{"key":"74fc:ea3c:a117:21d5:67c3:f793:422f:6152/14","name":"Hagenes Inc","director":"Otes Jodrelle","companyType":3,"industry":9,"isDissolved":true,"incorporated":"1/28/1994","dissolvedDate":"2/8/2022","companyNumber":"82-4759058","natureOfBusiness":10,"lat":22.270978,"long":113.576677,"zip":30},
{"key":"59dc:f93:ffb5:24dc:d7e9:3ae3:61e2:c339/122","name":"Hoeger, Paucek and Hodkiewicz","director":"Gav Hawley","companyType":0,"industry":9,"isDissolved":false,"incorporated":"7/18/1980","dissolvedDate":"5/19/2015","companyNumber":"64-1804951","natureOfBusiness":9,"lat":6.6875376,"long":124.6769673,"zip":34},
{"key":"1a1c:d28c:4a18:cf65:635c:bc17:53fb:a812/19","name":"Fisher LLC","director":"Christabella Elby","companyType":4,"industry":1,"isDissolved":true,"incorporated":"5/8/1984","dissolvedDate":"1/6/2023","companyNumber":"53-6536642","natureOfBusiness":16,"lat":15.1955811,"long":104.8304807,"zip":30},
{"key":"b415:700:fe66:813a:c9a7:a2ce:5551:5817/45","name":"Robel, Muller and Schmidt","director":"Homerus Leale","companyType":4,"industry":9,"isDissolved":true,"incorporated":"5/1/1993","dissolvedDate":"6/10/2021","companyNumber":"62-2032910","natureOfBusiness":5,"lat":45.6473994,"long":15.3176752,"zip":13},
{"key":"437b:cf6f:7d71:833f:e08a:b0df:3b52:a8d2/114","name":"Farrell Group","director":"Pierce Klaesson","companyType":4,"industry":5,"isDissolved":false,"incorporated":"12/20/2005","dissolvedDate":"2/21/2023","companyNumber":"09-1761159","natureOfBusiness":1,"lat":23.3659806,"long":103.3969125,"zip":41},
{"key":"519f:2842:3552:8544:a5d1:c92:675e:1209/99","name":"Kutch Group","director":"Cosetta Asling","companyType":2,"industry":5,"isDissolved":false,"incorporated":"11/2/2010","dissolvedDate":"7/24/2020","companyNumber":"89-4231376","natureOfBusiness":13,"lat":33.792785,"long":112.123041,"zip":21},
{"key":"d608:3275:6453:8520:8ae5:50ff:25e7:cba6/120","name":"Luettgen-Abbott","director":"Ewell Brownjohn","companyType":1,"industry":5,"isDissolved":true,"incorporated":"11/26/1998","dissolvedDate":"9/25/2022","companyNumber":"48-0956579","natureOfBusiness":1,"lat":62.7810616,"long":148.1452805,"zip":11},
{"key":"66e8:b340:5701:e486:a3e9:6800:f56b:5021/90","name":"Hagenes-Fisher","director":"Thomasin Aldhous","companyType":3,"industry":9,"isDissolved":true,"incorporated":"10/21/2006","dissolvedDate":"7/15/2018","companyNumber":"87-8115837","natureOfBusiness":5,"lat":41.805699,"long":123.431472,"zip":7},
{"key":"f2fb:926f:e8a7:6157:e2a5:7bac:e0a4:8b7c/117","name":"Dach-Nikolaus","director":"Sidoney Sehorsch","companyType":0,"industry":5,"isDissolved":false,"incorporated":"4/16/2006","dissolvedDate":"11/10/2022","companyNumber":"66-5818061","natureOfBusiness":10,"lat":22.2481519,"long":113.5755553,"zip":28},
{"key":"599d:966f:19be:24ac:5131:a8e:1279:7208/96","name":"Upton LLC","director":"Hanna Chree","companyType":2,"industry":8,"isDissolved":true,"incorporated":"7/20/2003","dissolvedDate":"6/2/2017","companyNumber":"85-2955233","natureOfBusiness":6,"lat":-17.9906981,"long":-63.3832653,"zip":20},
{"key":"84f4:67e6:9a7d:ff97:be95:6e53:fcd:de2b/5","name":"Gerlach LLC","director":"Manny Lucken","companyType":4,"industry":0,"isDissolved":true,"incorporated":"11/18/1993","dissolvedDate":"1/6/2022","companyNumber":"80-1814459","natureOfBusiness":14,"lat":58.4078726,"long":51.1841486,"zip":22},
{"key":"dc50:29e:edf:b73d:251d:5e36:7749:6a25/73","name":"Mertz-Pouros","director":"Fidelia Axon","companyType":4,"industry":3,"isDissolved":false,"incorporated":"8/19/2006","dissolvedDate":"7/15/2015","companyNumber":"25-8951106","natureOfBusiness":2,"lat":11.0574624,"long":-12.3979431,"zip":21},
{"key":"bb85:85e6:9c9:79fb:40cb:1088:2871:a164/29","name":"O'Conner and Sons","director":"Armando Inskipp","companyType":0,"industry":3,"isDissolved":true,"incorporated":"4/16/1980","dissolvedDate":"7/31/2016","companyNumber":"75-2147631","natureOfBusiness":13,"lat":15.3733776,"long":-89.7790986,"zip":23},
{"key":"bf8:1603:4179:cbd8:e9be:d065:567:1da9/47","name":"Kiehn-Leannon","director":"Eberto Traynor","companyType":1,"industry":6,"isDissolved":false,"incorporated":"12/4/1980","dissolvedDate":"10/23/2022","companyNumber":"67-2484587","natureOfBusiness":4,"lat":52.8436256,"long":32.6840185,"zip":13},
{"key":"121:393:5672:cc9a:63f6:3ac6:f393:1887/110","name":"Hauck, Schaden and Thiel","director":"Andromache Barhem","companyType":2,"industry":7,"isDissolved":true,"incorporated":"5/8/2003","dissolvedDate":"1/26/2018","companyNumber":"40-2249055","natureOfBusiness":14,"lat":56.6845023,"long":16.3327786,"zip":8},
{"key":"d505:7c32:7d84:be5d:c704:e5d1:e849:64a2/10","name":"Towne Group","director":"Erich Keri","companyType":3,"industry":2,"isDissolved":false,"incorporated":"8/8/2005","dissolvedDate":"6/12/2015","companyNumber":"62-7356072","natureOfBusiness":10,"lat":50.24987,"long":-117.80226,"zip":33},
{"key":"3fd3:37b:7a7a:e8e3:80f2:ce3:1f80:471/75","name":"Lueilwitz, Gleason and Leffler","director":"Alwyn Feaveer","companyType":0,"industry":6,"isDissolved":true,"incorporated":"12/13/2000","dissolvedDate":"4/2/2022","companyNumber":"65-1821241","natureOfBusiness":12,"lat":57.7831228,"long":14.197982,"zip":28},
{"key":"af57:9f00:6e4e:e807:5b42:9ba9:d142:6e28/126","name":"Lemke, Lockman and Durgan","director":"Ariela Rosoman","companyType":1,"industry":8,"isDissolved":false,"incorporated":"3/1/1990","dissolvedDate":"10/13/2016","companyNumber":"26-3170152","natureOfBusiness":13,"lat":29.306756,"long":120.07514,"zip":43},
{"key":"b39f:3a82:d0ad:4c16:b0e:8e02:3706:85d/120","name":"Leffler-Stracke","director":"Monty Dummer","companyType":0,"industry":3,"isDissolved":true,"incorporated":"4/28/1988","dissolvedDate":"10/15/2018","companyNumber":"52-1191448","natureOfBusiness":3,"lat":43.4945737,"long":5.8978018,"zip":36},
{"key":"4f6e:49a5:48bc:1167:e623:e955:7bbc:ee05/9","name":"Stiedemann LLC","director":"Giorgi Winks","companyType":1,"industry":2,"isDissolved":true,"incorporated":"9/2/1999","dissolvedDate":"8/18/2020","companyNumber":"41-1836949","natureOfBusiness":2,"lat":34.366396,"long":105.567066,"zip":12},
{"key":"bf05:fae0:1829:6ac8:a2ca:f111:f1f7:e41f/99","name":"Bernhard LLC","director":"Vincents Rodrig","companyType":0,"industry":5,"isDissolved":false,"incorporated":"9/7/1994","dissolvedDate":"3/6/2016","companyNumber":"66-3453089","natureOfBusiness":4,"lat":63.0097972,"long":18.1864547,"zip":43},
{"key":"a3b:22f0:e19f:3fbf:8aa:ef27:cb8d:d2b1/30","name":"Barrows Group","director":"Fitz Fudge","companyType":4,"industry":3,"isDissolved":false,"incorporated":"7/5/1998","dissolvedDate":"11/29/2018","companyNumber":"10-1124336","natureOfBusiness":14,"lat":40.657978,"long":109.840313,"zip":31},
{"key":"f3ae:11be:9cba:f3ef:9588:449c:f82c:d90d/28","name":"Ortiz-Brakus","director":"Rollins McAnellye","companyType":4,"industry":8,"isDissolved":true,"incorporated":"1/18/2011","dissolvedDate":"10/31/2016","companyNumber":"34-3170209","natureOfBusiness":2,"lat":39.903307,"long":116.649432,"zip":15},
{"key":"eaf9:483d:cf8:719b:207:e661:f4fb:9ba2/18","name":"Blanda Group","director":"Ludwig Adie","companyType":3,"industry":7,"isDissolved":false,"incorporated":"11/10/2000","dissolvedDate":"7/21/2021","companyNumber":"61-0034381","natureOfBusiness":1,"lat":14.4437285,"long":121.003315,"zip":15},
{"key":"2b15:911a:fef:971d:24ab:82e7:44ce:c13a/45","name":"Toy-Labadie","director":"Ettore Ferebee","companyType":4,"industry":5,"isDissolved":false,"incorporated":"1/10/1993","dissolvedDate":"4/25/2015","companyNumber":"80-5513334","natureOfBusiness":7,"lat":47.3920847,"long":8.5382066,"zip":19},
{"key":"e855:3052:3bc1:ecff:148f:1e3d:3dd2:eb61/103","name":"Jacobson-Aufderhar","director":"Irvine Kassman","companyType":1,"industry":8,"isDissolved":false,"incorporated":"11/20/1997","dissolvedDate":"12/14/2022","companyNumber":"94-5274443","natureOfBusiness":0,"lat":-0.8897256,"long":29.7831356,"zip":32},
{"key":"4864:61c1:bd22:6eab:9018:462c:97ce:a750/21","name":"Murazik, Strosin and Rutherford","director":"Becca Attewell","companyType":2,"industry":9,"isDissolved":true,"incorporated":"6/6/1992","dissolvedDate":"2/11/2017","companyNumber":"27-2937495","natureOfBusiness":1,"lat":29.036141,"long":117.468731,"zip":41},
{"key":"afcf:f7f0:b19e:7550:516d:a886:6c2a:d819/50","name":"Labadie, Stark and Larkin","director":"Codi Witcombe","companyType":1,"industry":6,"isDissolved":true,"incorporated":"9/25/2009","dissolvedDate":"12/7/2015","companyNumber":"12-8711129","natureOfBusiness":0,"lat":6.9655812,"long":125.4609462,"zip":39},
{"key":"547f:3f67:63f4:ab89:6fe8:12cd:c2e0:45ce/48","name":"Ward-Toy","director":"Trumann Sheber","companyType":4,"industry":3,"isDissolved":false,"incorporated":"8/29/2005","dissolvedDate":"6/23/2019","companyNumber":"05-1949305","natureOfBusiness":7,"lat":9.3473628,"long":105.1726816,"zip":24},
{"key":"90dd:b07a:44e2:5ad6:6b91:b269:8c7c:a525/43","name":"Haag-Hilll","director":"Pollyanna Liston","companyType":3,"industry":3,"isDissolved":true,"incorporated":"6/11/1995","dissolvedDate":"12/12/2018","companyNumber":"39-1436543","natureOfBusiness":1,"lat":-6.765065,"long":107.8643822,"zip":26},
{"key":"67f3:f905:5b27:8eb6:629:feef:ccb4:189f/94","name":"Howell and Sons","director":"Benedicta Mandel","companyType":2,"industry":7,"isDissolved":true,"incorporated":"7/20/1984","dissolvedDate":"9/30/2020","companyNumber":"45-7638960","natureOfBusiness":12,"lat":37.9642589,"long":-121.2569138,"zip":17},
{"key":"e99a:2f98:c462:f218:c728:f7d0:f644:6b4a/73","name":"Corkery-Krajcik","director":"Addy Antoniazzi","companyType":2,"industry":0,"isDissolved":true,"incorporated":"8/25/2001","dissolvedDate":"12/10/2016","companyNumber":"82-9417885","natureOfBusiness":5,"lat":6.9827437,"long":-5.7405139,"zip":0},
{"key":"d677:3d3:a26e:c280:ae40:1baa:4ca2:9fe2/31","name":"Berge LLC","director":"Perren Handmore","companyType":0,"industry":9,"isDissolved":false,"incorporated":"12/5/2013","dissolvedDate":"1/11/2015","companyNumber":"13-3098629","natureOfBusiness":0,"lat":18.3093394,"long":42.7662325,"zip":28},
{"key":"1319:f037:bbbd:9d07:61ca:ebc:bc37:f9e5/4","name":"Greenfelder Inc","director":"Kissiah Witty","companyType":2,"industry":5,"isDissolved":false,"incorporated":"1/13/2002","dissolvedDate":"9/4/2016","companyNumber":"79-0326191","natureOfBusiness":1,"lat":13.8267271,"long":-87.4659693,"zip":19},
{"key":"b70b:7c11:1ad2:ecf0:52b6:5260:451d:f91c/92","name":"Champlin and Sons","director":"Gunner Claesens","companyType":4,"industry":0,"isDissolved":true,"incorporated":"9/22/1987","dissolvedDate":"12/15/2017","companyNumber":"98-4890849","natureOfBusiness":5,"lat":30.203152,"long":115.429626,"zip":31},
{"key":"dafa:9d3f:ac0e:10e9:5f47:2f9a:6ab6:89ce/98","name":"Dach-Skiles","director":"Evangelia Peter","companyType":4,"industry":9,"isDissolved":true,"incorporated":"5/17/2000","dissolvedDate":"3/16/2023","companyNumber":"92-5710581","natureOfBusiness":11,"lat":7.516342,"long":123.345085,"zip":2},
{"key":"fa57:12ff:7938:4813:905d:8073:bd0a:991b/115","name":"Donnelly-Willms","director":"Augustus Moreinis","companyType":2,"industry":1,"isDissolved":true,"incorporated":"1/2/1979","dissolvedDate":"2/9/2018","companyNumber":"72-5860012","natureOfBusiness":12,"lat":44.6233945,"long":-73.5346134,"zip":20},
{"key":"6c05:59f3:1e04:b185:48fc:d0e:2090:982d/14","name":"Hintz LLC","director":"Aymer Ladd","companyType":4,"industry":8,"isDissolved":true,"incorporated":"10/20/2008","dissolvedDate":"1/21/2016","companyNumber":"32-2468483","natureOfBusiness":4,"lat":37.2425649,"long":111.8568586,"zip":28},
{"key":"6d5e:2afa:1571:bc4e:6f5:535d:9b0d:88b0/94","name":"Pouros-Senger","director":"Clarabelle Rosenstengel","companyType":4,"industry":9,"isDissolved":false,"incorporated":"4/18/1989","dissolvedDate":"6/26/2020","companyNumber":"82-7907852","natureOfBusiness":14,"lat":11.4148113,"long":-9.1788304,"zip":33},
{"key":"b800:2aa9:4afc:f929:d03b:9c5:3b5d:1494/118","name":"Schuster Inc","director":"Paxton Atto","companyType":4,"industry":5,"isDissolved":true,"incorporated":"9/3/1985","dissolvedDate":"11/28/2015","companyNumber":"55-2937711","natureOfBusiness":6,"lat":5.489059,"long":7.0175879,"zip":1},
{"key":"7b10:7942:cee5:7862:62c3:1ffd:e537:d6/31","name":"O'Kon and Sons","director":"Gael Phillipps","companyType":1,"industry":5,"isDissolved":true,"incorporated":"3/8/1993","dissolvedDate":"12/20/2023","companyNumber":"95-6189688","natureOfBusiness":13,"lat":50.0287787,"long":21.7557084,"zip":17},
{"key":"22ae:9321:25ba:1854:c797:3544:b6ed:ecee/21","name":"Fay, Wiza and Hauck","director":"Davine Filewood","companyType":1,"industry":0,"isDissolved":true,"incorporated":"3/22/2007","dissolvedDate":"9/15/2017","companyNumber":"34-8308489","natureOfBusiness":13,"lat":44.306097,"long":86.080602,"zip":14},
{"key":"5369:25ec:2de9:6473:b1ee:559b:f78b:fee9/15","name":"Murphy LLC","director":"Frans Licciardello","companyType":4,"industry":8,"isDissolved":false,"incorporated":"5/11/2006","dissolvedDate":"8/31/2016","companyNumber":"79-2676121","natureOfBusiness":10,"lat":27.85512,"long":120.6604815,"zip":15},
{"key":"4784:fc22:fab0:b6ca:b730:ed9b:35a1:341/29","name":"Wintheiser Group","director":"Edie Scawen","companyType":3,"industry":8,"isDissolved":true,"incorporated":"7/10/2009","dissolvedDate":"6/12/2015","companyNumber":"95-9068896","natureOfBusiness":7,"lat":-24.42787,"long":26.023656,"zip":43},
{"key":"ad49:ffee:4739:6e9a:894f:74b5:4361:1144/59","name":"Cummings, Swaniawski and Anderson","director":"Kristel Cutten","companyType":0,"industry":6,"isDissolved":true,"incorporated":"10/30/1992","dissolvedDate":"11/24/2022","companyNumber":"40-3861010","natureOfBusiness":13,"lat":38.7607275,"long":139.7347818,"zip":40},
{"key":"2e24:c99:1b1e:4d5d:c51b:a49e:6fc9:8c78/5","name":"Aufderhar Inc","director":"Sigismund Behling","companyType":1,"industry":1,"isDissolved":false,"incorporated":"7/9/1980","dissolvedDate":"12/6/2021","companyNumber":"59-9936411","natureOfBusiness":7,"lat":36.67931,"long":10.29195,"zip":10},
{"key":"724f:27d4:9b4:b95d:2063:498:3953:61fa/89","name":"Wehner LLC","director":"Veronika Haddacks","companyType":1,"industry":5,"isDissolved":true,"incorporated":"1/2/2005","dissolvedDate":"10/2/2023","companyNumber":"69-3412207","natureOfBusiness":4,"lat":40.6282676,"long":24.5762096,"zip":26},
{"key":"75d7:3b8c:92c9:a56:cfcf:f428:2083:564c/123","name":"Kohler and Sons","director":"Eliza Messenbird","companyType":1,"industry":1,"isDissolved":true,"incorporated":"9/15/1983","dissolvedDate":"11/7/2018","companyNumber":"08-1067363","natureOfBusiness":12,"lat":28.109598,"long":116.527871,"zip":13},
{"key":"3884:8ba0:d4e4:49e2:4df3:b890:4758:1b90/46","name":"Hyatt LLC","director":"Mirabel Spollen","companyType":3,"industry":9,"isDissolved":true,"incorporated":"8/20/1997","dissolvedDate":"1/21/2021","companyNumber":"44-3489610","natureOfBusiness":14,"lat":31.3106446,"long":120.6256806,"zip":41},
{"key":"99c7:839b:6d52:a805:e04e:337e:b933:35fd/122","name":"Collier LLC","director":"Harley Marrows","companyType":3,"industry":4,"isDissolved":true,"incorporated":"12/20/1984","dissolvedDate":"9/27/2019","companyNumber":"34-2642220","natureOfBusiness":13,"lat":-6.9098723,"long":107.1955974,"zip":1},
{"key":"a6dd:dfff:bf7c:2b22:bdb9:5be4:cc8b:231e/10","name":"Satterfield, Kunde and Schuppe","director":"Maximilian Skeene","companyType":1,"industry":9,"isDissolved":true,"incorporated":"2/2/2003","dissolvedDate":"1/24/2016","companyNumber":"28-2614449","natureOfBusiness":9,"lat":38.677426,"long":112.253935,"zip":6},
{"key":"56db:43d9:c8a2:fe4c:6163:da82:d74b:eeff/84","name":"Lakin, Wintheiser and Jast","director":"Adolf Strodder","companyType":2,"industry":3,"isDissolved":false,"incorporated":"6/25/1978","dissolvedDate":"5/28/2015","companyNumber":"44-6085502","natureOfBusiness":9,"lat":41.1735327,"long":20.6793311,"zip":3},
{"key":"52f2:f94d:2998:cb05:5e70:f241:c5c7:4251/5","name":"Stracke Inc","director":"Hewie Frick","companyType":1,"industry":0,"isDissolved":false,"incorporated":"6/4/1984","dissolvedDate":"9/24/2018","companyNumber":"71-2802694","natureOfBusiness":4,"lat":-9.5517,"long":124.3173,"zip":11},
{"key":"de9c:ce88:22a4:bea9:5358:b3c1:7504:a18a/60","name":"Trantow Group","director":"Pepillo Fosdick","companyType":1,"industry":3,"isDissolved":true,"incorporated":"7/9/1986","dissolvedDate":"12/20/2016","companyNumber":"74-7234909","natureOfBusiness":8,"lat":46.152911,"long":-71.885445,"zip":26},
{"key":"14d7:9a7e:ad2a:7180:9e8a:c122:d1b7:4ae9/112","name":"Treutel-Padberg","director":"Marlyn Vogele","companyType":2,"industry":5,"isDissolved":false,"incorporated":"5/19/1992","dissolvedDate":"10/6/2016","companyNumber":"52-8944980","natureOfBusiness":13,"lat":15.3445135,"long":104.1560983,"zip":7},
{"key":"2a32:d764:3500:6929:d5a3:e64e:de85:6172/21","name":"Cormier, Lowe and Moore","director":"Kali Vispo","companyType":0,"industry":0,"isDissolved":true,"incorporated":"12/7/1993","dissolvedDate":"5/12/2016","companyNumber":"66-3017429","natureOfBusiness":4,"lat":-29.7187338,"long":-52.4305596,"zip":21},
{"key":"6452:f5bd:dd0e:e970:b8f6:3068:408b:1684/13","name":"Zemlak-Bogan","director":"Terrell Bravington","companyType":3,"industry":4,"isDissolved":false,"incorporated":"8/19/1988","dissolvedDate":"7/8/2017","companyNumber":"14-3228339","natureOfBusiness":3,"lat":12.65179,"long":-1.888756,"zip":39},
{"key":"a811:4eb2:af11:8723:6a35:6f38:ddd:95fe/119","name":"Spinka and Sons","director":"Halie Geeraert","companyType":2,"industry":7,"isDissolved":true,"incorporated":"1/22/1990","dissolvedDate":"12/8/2021","companyNumber":"78-7139374","natureOfBusiness":5,"lat":34.728584,"long":112.132488,"zip":42},
{"key":"aca7:704f:b1f0:e0e6:15d6:9bb9:499d:ee57/91","name":"Kunde and Sons","director":"Benji Bonnell","companyType":4,"industry":8,"isDissolved":true,"incorporated":"10/19/1984","dissolvedDate":"2/3/2017","companyNumber":"31-2008129","natureOfBusiness":6,"lat":46.1055153,"long":-64.8115713,"zip":16},
{"key":"cb56:e171:cba7:3e61:94bb:1da7:f358:1960/117","name":"Bartoletti, Runte and Cassin","director":"Doralynn Janko","companyType":2,"industry":2,"isDissolved":true,"incorporated":"2/8/1980","dissolvedDate":"7/26/2023","companyNumber":"37-3097201","natureOfBusiness":13,"lat":-9.8185351,"long":147.6609064,"zip":45},
{"key":"9a9c:52c1:f448:317f:e8e7:5bf0:1a86:9a74/98","name":"Gibson Inc","director":"Viviyan Studdeard","companyType":4,"industry":8,"isDissolved":true,"incorporated":"12/21/2005","dissolvedDate":"12/17/2017","companyNumber":"30-3288720","natureOfBusiness":0,"lat":-25.6112339,"long":-54.5515662,"zip":17},
{"key":"bbb9:dda:e2dc:e6de:ecc4:cf10:a165:186f/87","name":"Nienow and Sons","director":"Morse Scotney","companyType":4,"industry":5,"isDissolved":true,"incorporated":"10/20/1998","dissolvedDate":"1/16/2021","companyNumber":"85-3985625","natureOfBusiness":7,"lat":-14.4765263,"long":-71.3957971,"zip":31},
{"key":"eed4:15a5:498f:e948:8cad:93c9:3a7b:9e8e/20","name":"Green Inc","director":"Hamel Gregan","companyType":1,"industry":1,"isDissolved":true,"incorporated":"4/13/1983","dissolvedDate":"8/23/2017","companyNumber":"44-7050540","natureOfBusiness":15,"lat":-6.2649072,"long":106.7567589,"zip":43},
{"key":"1afb:6c0c:59f:9efc:c038:ed68:9fb1:f468/7","name":"Reichert, Grady and Mraz","director":"Betteanne Honnicott","companyType":0,"industry":6,"isDissolved":true,"incorporated":"7/1/1982","dissolvedDate":"11/22/2021","companyNumber":"93-9520300","natureOfBusiness":8,"lat":40.8246053,"long":-73.112232,"zip":34},
{"key":"7440:3144:21fc:5cdf:3481:a9cc:e378:f2e4/92","name":"Jaskolski-Schmidt","director":"Rochella Chellam","companyType":2,"industry":6,"isDissolved":true,"incorporated":"8/22/1999","dissolvedDate":"2/2/2016","companyNumber":"25-9639196","natureOfBusiness":4,"lat":15.6452543,"long":-91.6875527,"zip":9},
{"key":"848:e8c7:76b9:5b59:66d6:bbba:95fe:c8f4/19","name":"Kiehn-Langworth","director":"Joice Oleksiak","companyType":2,"industry":7,"isDissolved":true,"incorporated":"1/10/1989","dissolvedDate":"8/22/2020","companyNumber":"14-2670483","natureOfBusiness":15,"lat":9.9868231,"long":-84.3692925,"zip":46},
{"key":"229e:f38d:1b87:11ad:2545:dab4:eab2:d2f1/55","name":"Turcotte-Wiza","director":"Martita Pybworth","companyType":1,"industry":7,"isDissolved":true,"incorporated":"6/6/2012","dissolvedDate":"11/4/2017","companyNumber":"85-1815852","natureOfBusiness":1,"lat":19.1914151,"long":-96.1275175,"zip":30},
{"key":"c21e:dda3:5092:3119:df84:19da:824a:eb44/52","name":"McLaughlin Inc","director":"Chalmers Lamming","companyType":3,"industry":4,"isDissolved":true,"incorporated":"11/27/2003","dissolvedDate":"3/23/2017","companyNumber":"49-1296685","natureOfBusiness":4,"lat":16.2584167,"long":97.725376,"zip":14},
{"key":"aff7:5868:59b5:f4c7:1d8f:77ca:643e:8237/95","name":"Douglas-Champlin","director":"Chance Warlton","companyType":0,"industry":0,"isDissolved":true,"incorporated":"1/23/1986","dissolvedDate":"2/5/2020","companyNumber":"10-8463075","natureOfBusiness":15,"lat":49.9061322,"long":22.5155104,"zip":10},
{"key":"d0ce:8105:dc66:8709:d934:da45:dc0f:f375/95","name":"Little, Price and Huel","director":"Janel Ipsgrave","companyType":4,"industry":2,"isDissolved":false,"incorporated":"12/26/2004","dissolvedDate":"7/7/2016","companyNumber":"53-5951217","natureOfBusiness":6,"lat":38.1307978,"long":140.8423085,"zip":27},
{"key":"47c5:65e0:8627:93a1:ceba:385a:e4e4:652b/75","name":"Zboncak-Parisian","director":"Katha Petr","companyType":2,"industry":5,"isDissolved":false,"incorporated":"3/14/1990","dissolvedDate":"11/21/2023","companyNumber":"55-2065077","natureOfBusiness":16,"lat":49.9194173,"long":27.7666835,"zip":4},
{"key":"758f:61cc:e646:4a11:1657:cf35:1a74:3c1/100","name":"Collins Inc","director":"Irita Rolfo","companyType":4,"industry":1,"isDissolved":true,"incorporated":"10/29/2004","dissolvedDate":"8/13/2018","companyNumber":"91-2105957","natureOfBusiness":15,"lat":-7.9675395,"long":112.7032945,"zip":6},
{"key":"e3e5:c7ec:e12f:337c:b8d9:c7b0:6421:166d/127","name":"Wunsch, Bergstrom and Leuschke","director":"Rozalie Figgins","companyType":4,"industry":5,"isDissolved":false,"incorporated":"9/17/1995","dissolvedDate":"11/13/2022","companyNumber":"14-7335190","natureOfBusiness":15,"lat":20.3474809,"long":-74.5023819,"zip":43},
{"key":"c0dc:702a:316e:8841:b65d:fd62:742f:9422/5","name":"Mills Inc","director":"Cesaro Linden","companyType":4,"industry":8,"isDissolved":false,"incorporated":"7/1/1999","dissolvedDate":"7/19/2022","companyNumber":"65-1013450","natureOfBusiness":12,"lat":49.1931313,"long":-0.3907558,"zip":13},
{"key":"2df4:a39e:39dc:61fb:b47f:c5f6:ca29:3d3e/44","name":"Goldner, Ruecker and Casper","director":"Albrecht Tawse","companyType":2,"industry":0,"isDissolved":true,"incorporated":"1/6/1982","dissolvedDate":"8/14/2019","companyNumber":"36-6719808","natureOfBusiness":16,"lat":49.8921732,"long":2.3000664,"zip":44},
{"key":"5cce:6e7f:3405:c150:9420:f4dc:32b3:698e/71","name":"Schmidt, Crist and Brown","director":"Winn Pawlata","companyType":0,"industry":2,"isDissolved":false,"incorporated":"5/12/2011","dissolvedDate":"10/16/2016","companyNumber":"63-9866189","natureOfBusiness":3,"lat":-8.2600716,"long":124.423984,"zip":46},
{"key":"1c07:6db6:54fb:2c20:f9fe:2663:a646:2c9f/8","name":"Haag-Towne","director":"Amabel D'Adamo","companyType":1,"industry":6,"isDissolved":false,"incorporated":"12/15/1984","dissolvedDate":"3/4/2023","companyNumber":"04-5197594","natureOfBusiness":6,"lat":14.49393,"long":-90.7090795,"zip":28},
{"key":"47a8:3a4:5896:60cd:d2fb:4adc:74c:b6a9/45","name":"Jacobs, Fisher and DuBuque","director":"Mandi Neligan","companyType":2,"industry":0,"isDissolved":false,"incorporated":"2/11/1999","dissolvedDate":"3/31/2017","companyNumber":"56-6144833","natureOfBusiness":2,"lat":57.7197857,"long":12.933356,"zip":43},
{"key":"5c1d:dd80:ae5:bf1e:fad4:5ff:7cb8:b091/47","name":"Hyatt, Stamm and Ruecker","director":"Stella Richardson","companyType":4,"industry":1,"isDissolved":false,"incorporated":"7/28/1987","dissolvedDate":"11/11/2022","companyNumber":"15-3386638","natureOfBusiness":0,"lat":23.696329,"long":117.433977,"zip":10},
{"key":"3896:6e91:d549:b39a:a2d6:a291:47fa:cef6/62","name":"Welch Group","director":"Peggi Hauxwell","companyType":3,"industry":8,"isDissolved":true,"incorporated":"2/1/1981","dissolvedDate":"3/3/2017","companyNumber":"85-4871800","natureOfBusiness":4,"lat":35.7013041,"long":52.0586252,"zip":24},
{"key":"f7ca:a491:19d4:d0b0:1171:3a36:93c4:58e1/109","name":"Lindgren-Keebler","director":"Torie Blumson","companyType":2,"industry":8,"isDissolved":false,"incorporated":"1/22/2000","dissolvedDate":"9/7/2017","companyNumber":"01-8939375","natureOfBusiness":14,"lat":39.5022546,"long":-8.6542956,"zip":15},
{"key":"953a:9771:e200:9c7c:d7e0:10ae:ed53:e97/6","name":"Beatty Group","director":"Cory Cudiff","companyType":3,"industry":8,"isDissolved":false,"incorporated":"3/29/1991","dissolvedDate":"10/20/2019","companyNumber":"83-8279807","natureOfBusiness":3,"lat":45.716147,"long":-73.5471039,"zip":24},
{"key":"44e4:4568:1cc5:e82e:6726:bb82:82a4:1b2e/51","name":"Buckridge-Murphy","director":"Grete Mongenot","companyType":2,"industry":0,"isDissolved":true,"incorporated":"4/17/1980","dissolvedDate":"11/20/2017","companyNumber":"95-4715849","natureOfBusiness":0,"lat":55.0385549,"long":55.9861219,"zip":42},
{"key":"7ea4:ae13:8d64:67a2:b6c0:320e:303f:af02/96","name":"Hand Group","director":"Dalis Champneys","companyType":2,"industry":5,"isDissolved":false,"incorporated":"8/31/1978","dissolvedDate":"9/21/2020","companyNumber":"06-6486532","natureOfBusiness":16,"lat":48.75667,"long":-91.62409,"zip":46},
{"key":"3c46:9aa1:6c47:1b29:8482:a07:53f1:b709/41","name":"Purdy and Sons","director":"Dosi Josh","companyType":3,"industry":7,"isDissolved":true,"incorporated":"12/27/1983","dissolvedDate":"8/16/2017","companyNumber":"19-8147187","natureOfBusiness":9,"lat":48.3441198,"long":33.5244801,"zip":23},
{"key":"32e7:6b74:e082:f4ec:fe3d:6c0e:1ed6:b20c/94","name":"Kulas-Murray","director":"Zsazsa Phayre","companyType":1,"industry":6,"isDissolved":true,"incorporated":"1/7/1985","dissolvedDate":"7/16/2022","companyNumber":"08-0866623","natureOfBusiness":11,"lat":8.1620514,"long":-12.4351923,"zip":32},
{"key":"2da3:e224:7e09:2e2:e483:201d:451e:716a/84","name":"Harvey Inc","director":"Killy Caville","companyType":2,"industry":8,"isDissolved":false,"incorporated":"1/24/2000","dissolvedDate":"10/13/2023","companyNumber":"85-3832975","natureOfBusiness":13,"lat":47.491705,"long":21.668453,"zip":45},
{"key":"a73c:77a9:a1b5:79da:ae20:9ceb:776a:a8b0/3","name":"Dickens-Kunze","director":"Dorolisa Royl","companyType":2,"industry":8,"isDissolved":true,"incorporated":"11/5/1980","dissolvedDate":"2/15/2015","companyNumber":"19-9965227","natureOfBusiness":11,"lat":15.3363872,"long":-88.3579301,"zip":30},
{"key":"953d:49e6:4985:ecb4:7c08:1e7f:725f:4ebf/55","name":"Langosh, Miller and Schuster","director":"Kendell Banane","companyType":2,"industry":3,"isDissolved":true,"incorporated":"1/29/1991","dissolvedDate":"7/17/2015","companyNumber":"53-9711164","natureOfBusiness":2,"lat":-21.9751571,"long":-46.7997801,"zip":33},
{"key":"46af:54a7:8311:d496:711a:1630:bd0c:126c/41","name":"Hintz and Sons","director":"Oralee Petrillo","companyType":0,"industry":0,"isDissolved":true,"incorporated":"1/19/1979","dissolvedDate":"9/12/2019","companyNumber":"07-1412480","natureOfBusiness":3,"lat":15.6576354,"long":-85.9968479,"zip":36},
{"key":"f0e5:4bd3:9bd0:d2c4:fced:2853:284e:913e/109","name":"Yundt-Harvey","director":"Alyda Cosgry","companyType":3,"industry":0,"isDissolved":true,"incorporated":"12/30/1981","dissolvedDate":"8/23/2018","companyNumber":"48-0827403","natureOfBusiness":10,"lat":37.2719952,"long":127.4348221,"zip":0},
{"key":"b8c1:46b3:d815:c957:3701:6138:96d5:67f9/66","name":"Friesen-O'Kon","director":"Franklyn Loveitt","companyType":3,"industry":9,"isDissolved":true,"incorporated":"11/21/2012","dissolvedDate":"9/9/2021","companyNumber":"56-0571933","natureOfBusiness":2,"lat":-11.8991825,"long":33.5923941,"zip":40},
{"key":"ec8c:6b2c:d1c:62f8:febf:ac3d:79f2:7d2e/22","name":"Murphy-Rohan","director":"Jess McGroarty","companyType":3,"industry":2,"isDissolved":true,"incorporated":"3/22/2004","dissolvedDate":"1/12/2016","companyNumber":"35-9669949","natureOfBusiness":6,"lat":40.7408774,"long":24.5772111,"zip":8},
{"key":"a8d7:660a:b4eb:2811:ff14:d626:3a52:fbc1/78","name":"Maggio-Ziemann","director":"Damon Vogeler","companyType":2,"industry":1,"isDissolved":true,"incorporated":"4/10/2004","dissolvedDate":"8/21/2017","companyNumber":"41-0571575","natureOfBusiness":5,"lat":28.856082,"long":93.388853,"zip":38},
{"key":"baa0:6dcc:ad5a:4c13:2ac4:43f2:68c:c49f/78","name":"Swaniawski LLC","director":"Taffy Chishull","companyType":4,"industry":8,"isDissolved":true,"incorporated":"3/22/2000","dissolvedDate":"8/18/2018","companyNumber":"74-4441926","natureOfBusiness":14,"lat":35.9247112,"long":139.7667822,"zip":12},
{"key":"3c4c:7fb5:e6c5:84b5:fe45:f602:a7fd:f1b7/91","name":"Quitzon Inc","director":"Lindsay Allibone","companyType":3,"industry":3,"isDissolved":true,"incorporated":"1/25/2003","dissolvedDate":"4/7/2023","companyNumber":"58-8241939","natureOfBusiness":7,"lat":41.1653042,"long":-7.7850487,"zip":2},
{"key":"26a1:f4c5:ddca:a93a:1684:5d1d:d6c0:3137/21","name":"Skiles LLC","director":"Corbie Housecroft","companyType":0,"industry":6,"isDissolved":true,"incorporated":"1/27/2010","dissolvedDate":"7/24/2018","companyNumber":"49-0085537","natureOfBusiness":4,"lat":-22.3880391,"long":-44.9669685,"zip":27},
{"key":"f58c:d10f:3f01:7ab5:20e6:98dd:35cf:411/55","name":"Bahringer-Keeling","director":"Spenser Huntall","companyType":3,"industry":5,"isDissolved":false,"incorporated":"5/9/2001","dissolvedDate":"1/7/2019","companyNumber":"03-2866995","natureOfBusiness":15,"lat":-10.9,"long":39.33333,"zip":6},
{"key":"c36a:362c:33f9:7b8a:836c:239d:3e5e:2701/62","name":"Ferry-Hegmann","director":"Selia Leffek","companyType":1,"industry":6,"isDissolved":true,"incorporated":"3/31/1986","dissolvedDate":"3/22/2021","companyNumber":"72-2779691","natureOfBusiness":16,"lat":-7.5273,"long":110.336609,"zip":22},
{"key":"2f43:2912:5153:d69d:a1dd:1c86:a26d:4bae/122","name":"Streich and Sons","director":"Darrel Teffrey","companyType":1,"industry":2,"isDissolved":false,"incorporated":"4/7/2009","dissolvedDate":"1/15/2022","companyNumber":"03-1919582","natureOfBusiness":3,"lat":40.657978,"long":109.840313,"zip":38},
{"key":"7754:54f3:8f:4177:4952:24c5:fc7:789d/24","name":"Kutch Inc","director":"Yasmeen Ritter","companyType":2,"industry":2,"isDissolved":false,"incorporated":"10/28/1994","dissolvedDate":"2/12/2020","companyNumber":"18-1123372","natureOfBusiness":6,"lat":50.0873009,"long":16.4652007,"zip":18},
{"key":"ad3b:8979:5e5c:53d8:5798:fd5b:cc69:678f/86","name":"Morissette-Beatty","director":"Ermengarde Blew","companyType":3,"industry":9,"isDissolved":true,"incorporated":"8/12/1993","dissolvedDate":"11/12/2020","companyNumber":"79-0520443","natureOfBusiness":5,"lat":-8.0026625,"long":111.4559084,"zip":4},
{"key":"479c:9352:343c:63a0:5327:b42b:a51b:56db/96","name":"Macejkovic, Labadie and Hand","director":"Bonnibelle Chevins","companyType":0,"industry":8,"isDissolved":true,"incorporated":"11/15/1993","dissolvedDate":"10/12/2016","companyNumber":"50-1251033","natureOfBusiness":5,"lat":48.830394,"long":2.2372823,"zip":26},
{"key":"8a4e:192a:dfe4:dad2:2606:9fbd:6dc:e7f1/85","name":"Haley-Ondricka","director":"Farr Pim","companyType":1,"industry":7,"isDissolved":true,"incorporated":"1/31/1981","dissolvedDate":"12/15/2018","companyNumber":"93-5621270","natureOfBusiness":5,"lat":55.045149,"long":32.721561,"zip":34},
{"key":"c952:77f4:2613:55f1:acb0:4e0:5783:288f/73","name":"Lueilwitz-Kuhlman","director":"Gannon Towne","companyType":4,"industry":4,"isDissolved":true,"incorporated":"7/24/2005","dissolvedDate":"6/18/2017","companyNumber":"75-7578614","natureOfBusiness":8,"lat":43.5141037,"long":16.1076867,"zip":7},
{"key":"2d7c:b189:3dc6:b065:dd7:7a5f:778:db63/59","name":"Sanford-Kirlin","director":"Trixie Nind","companyType":2,"industry":8,"isDissolved":true,"incorporated":"7/25/2011","dissolvedDate":"5/11/2020","companyNumber":"62-4497617","natureOfBusiness":2,"lat":29.097342,"long":91.847388,"zip":39},
{"key":"3f84:1998:3657:1d57:8937:c50f:c424:57ef/8","name":"Kshlerin Inc","director":"Kira Stollhofer","companyType":0,"industry":4,"isDissolved":false,"incorporated":"6/9/2008","dissolvedDate":"8/30/2021","companyNumber":"76-6759100","natureOfBusiness":8,"lat":-22.1507823,"long":166.8808338,"zip":6},
{"key":"6e04:fdeb:b42:b2c1:d3e1:416f:66b7:15cb/91","name":"Spinka and Sons","director":"Alis Chaulk","companyType":0,"industry":2,"isDissolved":true,"incorporated":"8/27/2001","dissolvedDate":"4/14/2017","companyNumber":"77-9181181","natureOfBusiness":5,"lat":26.241987,"long":119.618419,"zip":19},
{"key":"edab:1a5f:628e:45d4:5cba:64b6:b859:c7b5/65","name":"Luettgen-Stokes","director":"Gerty Pollastro","companyType":1,"industry":6,"isDissolved":true,"incorporated":"10/7/2010","dissolvedDate":"2/4/2021","companyNumber":"87-5984953","natureOfBusiness":5,"lat":-8.7224084,"long":125.5712576,"zip":29},
{"key":"ec0e:a37f:6a5:e1d8:2a43:fd27:7d4c:bc8a/41","name":"Jacobson, Orn and Walter","director":"Marcy Fedder","companyType":2,"industry":7,"isDissolved":true,"incorporated":"3/12/1992","dissolvedDate":"5/6/2023","companyNumber":"60-0025967","natureOfBusiness":10,"lat":45.742007,"long":3.199309,"zip":11},
{"key":"a6e8:a8b1:c58:fa35:bbf1:6c95:1dc5:e8db/44","name":"Kessler and Sons","director":"Enrique Gostling","companyType":3,"industry":9,"isDissolved":true,"incorporated":"7/9/1998","dissolvedDate":"11/19/2023","companyNumber":"99-7171963","natureOfBusiness":7,"lat":35.939466,"long":118.520324,"zip":43},
{"key":"7df5:5b70:3f56:7988:85d7:e5c2:af7a:e53a/59","name":"Zemlak-Durgan","director":"Zaria Ovett","companyType":3,"industry":4,"isDissolved":false,"incorporated":"12/17/1995","dissolvedDate":"9/9/2017","companyNumber":"43-9939541","natureOfBusiness":10,"lat":25.0746235,"long":90.1494904,"zip":14},
{"key":"5317:2694:49d6:4e0e:97d0:1b63:9a24:2651/73","name":"Jacobi-Brekke","director":"Lucas Van Ross","companyType":2,"industry":1,"isDissolved":false,"incorporated":"5/6/1997","dissolvedDate":"6/12/2023","companyNumber":"61-5296952","natureOfBusiness":13,"lat":36.77549,"long":119.219734,"zip":32},
{"key":"a0c8:e9ca:ec94:7e50:d985:d8c5:e523:1970/17","name":"Homenick Group","director":"Nellie Grishukov","companyType":0,"industry":7,"isDissolved":true,"incorporated":"8/28/2007","dissolvedDate":"1/31/2016","companyNumber":"72-6406620","natureOfBusiness":11,"lat":-17.2884329,"long":-70.3643395,"zip":45},
{"key":"3d3:82e4:9654:f96d:cfb3:51a0:84e3:518e/17","name":"Von Group","director":"Randall Gopsell","companyType":4,"industry":6,"isDissolved":false,"incorporated":"9/25/2013","dissolvedDate":"2/7/2022","companyNumber":"85-1297261","natureOfBusiness":5,"lat":-20.1127536,"long":16.1610343,"zip":12},
{"key":"e9b8:74d6:4b20:957e:6121:a5aa:1b17:49ca/46","name":"Hilpert Inc","director":"Petrina Fehners","companyType":1,"industry":8,"isDissolved":false,"incorporated":"8/24/1994","dissolvedDate":"12/26/2016","companyNumber":"22-2804758","natureOfBusiness":8,"lat":36.628305,"long":101.765843,"zip":30},
{"key":"8dba:5a8f:ef9e:ffdb:bac7:5af1:1638:3a94/100","name":"Pouros LLC","director":"Jay Wane","companyType":3,"industry":5,"isDissolved":false,"incorporated":"2/7/1983","dissolvedDate":"5/14/2020","companyNumber":"33-5033796","natureOfBusiness":4,"lat":10.4816837,"long":-66.8603112,"zip":40},
{"key":"28da:9e2:34a2:4090:5613:9384:96d4:8f2c/64","name":"Kuhn, Miller and Runolfsson","director":"Byran Chastel","companyType":1,"industry":0,"isDissolved":true,"incorporated":"11/4/2003","dissolvedDate":"5/14/2017","companyNumber":"60-3622131","natureOfBusiness":12,"lat":23.101153,"long":113.228291,"zip":30},
{"key":"b7e6:d662:fda:643e:bdac:6f16:147a:2422/51","name":"Cartwright, Schaden and Brakus","director":"Annis Matasov","companyType":3,"industry":0,"isDissolved":true,"incorporated":"3/28/2002","dissolvedDate":"1/9/2021","companyNumber":"03-3754721","natureOfBusiness":14,"lat":-6.927607,"long":107.663944,"zip":1},
{"key":"e44f:d839:79e2:dfc6:ac69:e7bb:99de:3f29/41","name":"King, Rau and Schiller","director":"Danny Jerrold","companyType":0,"industry":8,"isDissolved":false,"incorporated":"9/6/2002","dissolvedDate":"1/14/2018","companyNumber":"28-1883737","natureOfBusiness":15,"lat":-9.5517,"long":124.3173,"zip":11},
{"key":"6317:4aaf:7718:f831:4a5f:ec91:c5f:ac3/84","name":"Orn and Sons","director":"Faith D'Abbot-Doyle","companyType":4,"industry":0,"isDissolved":true,"incorporated":"4/8/1980","dissolvedDate":"2/8/2023","companyNumber":"38-1466942","natureOfBusiness":2,"lat":35.6726588,"long":139.7796498,"zip":32},
{"key":"78d3:5d27:2bc2:a57e:2ce4:7c84:9b6a:a091/31","name":"Russel and Sons","director":"Bab Seage","companyType":4,"industry":6,"isDissolved":false,"incorporated":"4/8/1986","dissolvedDate":"1/31/2023","companyNumber":"10-2848154","natureOfBusiness":12,"lat":37.0909826,"long":138.1698009,"zip":39},
{"key":"818c:bfeb:ff23:820f:ca3:73bd:cf78:1e57/96","name":"Little-Shanahan","director":"Sheri Stack","companyType":4,"industry":1,"isDissolved":true,"incorporated":"4/19/1983","dissolvedDate":"3/13/2022","companyNumber":"46-5093812","natureOfBusiness":5,"lat":35.0951298,"long":139.0488849,"zip":35},
{"key":"3e3a:3b9a:de9b:6528:b992:5f2:8bb6:c342/43","name":"Metz and Sons","director":"Kendre McGucken","companyType":4,"industry":9,"isDissolved":true,"incorporated":"1/30/1986","dissolvedDate":"2/25/2018","companyNumber":"53-7277502","natureOfBusiness":8,"lat":57.4749779,"long":25.491651,"zip":35},
{"key":"543f:4ac2:ce60:1e9b:5336:c69b:5ebd:7da/121","name":"Von Group","director":"Lian Lessmare","companyType":3,"industry":6,"isDissolved":true,"incorporated":"4/21/1992","dissolvedDate":"7/23/2023","companyNumber":"38-5873213","natureOfBusiness":11,"lat":-12.883333,"long":-74.466667,"zip":36},
{"key":"f51f:2511:c749:6d1c:cb40:d538:21a2:9094/97","name":"Kub-Prosacco","director":"Eliot Chatenet","companyType":0,"industry":6,"isDissolved":false,"incorporated":"7/21/2012","dissolvedDate":"10/31/2018","companyNumber":"53-4908876","natureOfBusiness":7,"lat":27.0522919,"long":89.5756987,"zip":38},
{"key":"7bf4:e23a:429f:7997:2714:f781:1af9:ae7f/57","name":"Erdman-Howe","director":"Neila Lymer","companyType":4,"industry":8,"isDissolved":false,"incorporated":"9/11/2004","dissolvedDate":"5/17/2016","companyNumber":"70-4537286","natureOfBusiness":11,"lat":-29.7127463,"long":-51.2422395,"zip":25},
{"key":"a307:4177:47b2:70c6:548e:dda5:210e:7466/76","name":"Cruickshank, Batz and Mitchell","director":"Colet Florentine","companyType":2,"industry":8,"isDissolved":true,"incorporated":"4/10/1985","dissolvedDate":"4/4/2016","companyNumber":"64-6820410","natureOfBusiness":15,"lat":-7.9284108,"long":110.3457756,"zip":43},
{"key":"e325:4f72:e05d:34b:454c:65da:1885:d2c9/59","name":"Russel-Keebler","director":"Lee Childe","companyType":4,"industry":4,"isDissolved":false,"incorporated":"8/17/1999","dissolvedDate":"10/14/2016","companyNumber":"18-8996379","natureOfBusiness":8,"lat":25.600272,"long":115.786056,"zip":22},
{"key":"f903:744:a11d:3d08:59d5:6c3:5b70:5443/120","name":"Pollich Group","director":"Kiersten Shackleton","companyType":4,"industry":9,"isDissolved":false,"incorporated":"8/24/1987","dissolvedDate":"9/27/2022","companyNumber":"81-0106924","natureOfBusiness":11,"lat":13.81436,"long":45.3923,"zip":23},
{"key":"2985:eb2:849c:98fe:6338:5688:e66c:dca/90","name":"Hagenes-Blick","director":"Rhona Morden","companyType":4,"industry":4,"isDissolved":false,"incorporated":"2/27/2008","dissolvedDate":"2/28/2021","companyNumber":"37-1115732","natureOfBusiness":8,"lat":1.683061,"long":-77.072933,"zip":19},
{"key":"992c:5c3b:cf2f:4255:79c4:2421:12c5:8d1d/67","name":"O'Reilly, Medhurst and Raynor","director":"Finlay Dumberell","companyType":0,"industry":6,"isDissolved":true,"incorporated":"6/3/2010","dissolvedDate":"6/13/2017","companyNumber":"66-1007308","natureOfBusiness":0,"lat":41.0251448,"long":22.0056062,"zip":13},
{"key":"fc18:3b7a:2f2a:d75c:7ba3:cce3:28be:971/86","name":"Wuckert-Cronin","director":"Madel Staynes","companyType":0,"industry":5,"isDissolved":true,"incorporated":"2/15/2004","dissolvedDate":"6/16/2020","companyNumber":"17-8007453","natureOfBusiness":5,"lat":43.1564817,"long":-80.1651854,"zip":31},
{"key":"11b6:8844:9335:43ea:6a21:d1d6:9440:9318/52","name":"Schneider, Dickinson and White","director":"Michaelina Mathon","companyType":2,"industry":4,"isDissolved":true,"incorporated":"10/3/1983","dissolvedDate":"12/7/2022","companyNumber":"16-6317242","natureOfBusiness":9,"lat":52.9376808,"long":87.9774328,"zip":45},
{"key":"b045:88e4:d526:ab1a:477:c17f:60e7:7dd7/84","name":"Hand, Harber and Smith","director":"Ario Groome","companyType":3,"industry":7,"isDissolved":false,"incorporated":"4/22/1991","dissolvedDate":"8/17/2017","companyNumber":"11-6798860","natureOfBusiness":9,"lat":52.6225919,"long":90.0794098,"zip":26},
{"key":"71:6c59:74c0:18e5:645b:8ad9:8e08:da40/120","name":"Dietrich and Sons","director":"Idette Brignell","companyType":1,"industry":2,"isDissolved":false,"incorporated":"6/6/2003","dissolvedDate":"6/25/2015","companyNumber":"68-8306310","natureOfBusiness":0,"lat":8.18806,"long":124.60972,"zip":18},
{"key":"708c:1455:f926:d604:59aa:4495:821b:fa10/103","name":"Rutherford and Sons","director":"Deane Lewer","companyType":0,"industry":2,"isDissolved":true,"incorporated":"12/21/1994","dissolvedDate":"10/22/2019","companyNumber":"92-8946355","natureOfBusiness":4,"lat":-7.0748,"long":112.4303,"zip":44},
{"key":"9058:460d:cfff:dd03:6e4:5698:89a6:8cf3/72","name":"Emard-Rippin","director":"Bartram Kubacek","companyType":0,"industry":3,"isDissolved":true,"incorporated":"9/18/1981","dissolvedDate":"10/26/2022","companyNumber":"07-9462107","natureOfBusiness":5,"lat":6.3833462,"long":-75.5858886,"zip":17},
{"key":"8544:b157:a3d:60f:4c23:26bd:ecc2:1705/59","name":"Torp-Torphy","director":"Tresa Aizic","companyType":2,"industry":4,"isDissolved":true,"incorporated":"6/13/1993","dissolvedDate":"4/6/2015","companyNumber":"83-0849543","natureOfBusiness":3,"lat":7.9819727,"long":-81.166481,"zip":17},
{"key":"4e23:3991:1963:f74c:55f0:3b27:2f95:3d36/13","name":"Baumbach and Sons","director":"Vernice Gerardeaux","companyType":4,"industry":6,"isDissolved":false,"incorporated":"4/7/1983","dissolvedDate":"8/14/2016","companyNumber":"41-4998596","natureOfBusiness":0,"lat":30.741991,"long":121.341969,"zip":40},
{"key":"9ee7:e1f7:5e7a:4a87:bb79:357a:b379:c020/58","name":"Mayer LLC","director":"Saunderson Thomkins","companyType":3,"industry":8,"isDissolved":true,"incorporated":"1/21/1991","dissolvedDate":"11/11/2018","companyNumber":"61-1137342","natureOfBusiness":1,"lat":40.7325414,"long":22.6920826,"zip":8},
{"key":"605e:b97d:b6c:c44b:ea12:9b06:cfdb:a2cb/96","name":"Wisoky-Kohler","director":"Kesley Musico","companyType":2,"industry":9,"isDissolved":false,"incorporated":"12/25/1996","dissolvedDate":"5/24/2021","companyNumber":"20-8132269","natureOfBusiness":0,"lat":-6.980092,"long":-35.8934136,"zip":21},
{"key":"ff3:2dd6:d402:6e7f:4ba7:c899:9dc9:d533/118","name":"Hudson Group","director":"Nerissa Burney","companyType":3,"industry":2,"isDissolved":true,"incorporated":"12/29/1980","dissolvedDate":"2/6/2022","companyNumber":"59-3240056","natureOfBusiness":7,"lat":49.1931313,"long":-0.3907558,"zip":36},
{"key":"2a99:9581:2bb4:285f:2a00:f163:3331:62a7/39","name":"Gislason and Sons","director":"Elinor Seed","companyType":1,"industry":9,"isDissolved":true,"incorporated":"1/9/1990","dissolvedDate":"2/28/2015","companyNumber":"80-2534446","natureOfBusiness":1,"lat":48.8610504,"long":2.3237084,"zip":46},
{"key":"1dec:e99b:3aac:ddcb:4e0b:a940:9dab:b687/26","name":"Rolfson-Stoltenberg","director":"Marga Strelitz","companyType":1,"industry":1,"isDissolved":false,"incorporated":"11/1/1978","dissolvedDate":"2/22/2020","companyNumber":"61-1443196","natureOfBusiness":2,"lat":37.5392646,"long":127.2148919,"zip":34},
{"key":"2c7c:a575:540a:4230:b65b:d483:2aff:2bcc/98","name":"Okuneva, Kub and Reynolds","director":"Debbi Culvey","companyType":2,"industry":5,"isDissolved":true,"incorporated":"4/5/2007","dissolvedDate":"3/23/2020","companyNumber":"97-6169269","natureOfBusiness":9,"lat":29.470982,"long":110.441976,"zip":13},
{"key":"6e9c:8fe9:79fe:ea51:7392:56cf:55ff:5de/21","name":"Sauer, Lubowitz and McDermott","director":"Dulci McGuane","companyType":3,"industry":3,"isDissolved":true,"incorporated":"4/2/1998","dissolvedDate":"5/8/2016","companyNumber":"38-3008888","natureOfBusiness":9,"lat":26.1218315,"long":32.4715312,"zip":46},
{"key":"40ef:19e1:5671:9501:fd95:6ca4:44bd:d3d3/109","name":"Jacobi and Sons","director":"Wilden Wigley","companyType":2,"industry":0,"isDissolved":false,"incorporated":"12/5/2011","dissolvedDate":"12/10/2022","companyNumber":"19-4675644","natureOfBusiness":0,"lat":41.604029,"long":-8.5920192,"zip":2},
{"key":"b254:9643:7cc9:9027:2073:35ed:5d0d:b45c/99","name":"McLaughlin-VonRueden","director":"Filippo Linstead","companyType":1,"industry":2,"isDissolved":false,"incorporated":"7/25/1985","dissolvedDate":"11/20/2017","companyNumber":"13-1337498","natureOfBusiness":4,"lat":41.186564,"long":111.308664,"zip":8},
{"key":"b2b6:350c:b28:3c3c:751d:7e77:fe2c:7af/58","name":"Rutherford LLC","director":"Marjory Grimstead","companyType":1,"industry":2,"isDissolved":false,"incorporated":"9/16/2005","dissolvedDate":"11/18/2023","companyNumber":"38-8829021","natureOfBusiness":10,"lat":42.7723725,"long":23.3143163,"zip":8},
{"key":"4f78:6e9d:20c1:3689:87d0:d4c7:d1d8:9ebe/39","name":"Simonis-Crist","director":"Mireielle Mapplebeck","companyType":4,"industry":2,"isDissolved":false,"incorporated":"7/4/2000","dissolvedDate":"12/22/2021","companyNumber":"23-1480019","natureOfBusiness":4,"lat":32.009016,"long":112.122426,"zip":21},
{"key":"1efd:9421:2205:4853:b95f:e45:7f31:4e43/1","name":"Jenkins, Raynor and Heidenreich","director":"Morley Cottrill","companyType":0,"industry":8,"isDissolved":true,"incorporated":"1/12/2012","dissolvedDate":"11/19/2015","companyNumber":"53-1091602","natureOfBusiness":1,"lat":29.9460643,"long":122.3032914,"zip":35},
{"key":"69aa:4234:5a9f:ba8b:6678:63fe:9bc7:4735/100","name":"Stehr, Wilkinson and Boyle","director":"Gayla Giorgini","companyType":3,"industry":6,"isDissolved":true,"incorporated":"3/14/1998","dissolvedDate":"7/5/2017","companyNumber":"37-4141297","natureOfBusiness":15,"lat":48.4100734,"long":-4.4706255,"zip":33},
{"key":"c000:dea2:ea0d:b5e5:6b28:c7a8:dcb2:bf25/109","name":"Koelpin-Botsford","director":"Estele Heaps","companyType":3,"industry":2,"isDissolved":true,"incorporated":"10/13/2011","dissolvedDate":"12/24/2020","companyNumber":"93-7670551","natureOfBusiness":11,"lat":-6.8510505,"long":108.0806141,"zip":20},
{"key":"a160:5a2f:431c:8550:4692:78d9:7eda:a7ac/102","name":"Nolan, Hartmann and Bashirian","director":"Charles Corse","companyType":2,"industry":7,"isDissolved":false,"incorporated":"10/30/2008","dissolvedDate":"7/5/2018","companyNumber":"48-6779209","natureOfBusiness":4,"lat":59.7620958,"long":18.7017911,"zip":7},
{"key":"4fdd:f121:a138:28a9:81ae:7ed9:35d2:37de/13","name":"Terry and Sons","director":"Kristofer Mellodey","companyType":2,"industry":1,"isDissolved":false,"incorporated":"12/5/2003","dissolvedDate":"8/13/2022","companyNumber":"98-6103592","natureOfBusiness":0,"lat":42.4466457,"long":19.8827002,"zip":25},
{"key":"1521:c20c:d560:2e24:a411:41d2:a39b:896f/39","name":"Berge Group","director":"Ignacius Friary","companyType":4,"industry":0,"isDissolved":true,"incorporated":"12/13/1990","dissolvedDate":"5/22/2018","companyNumber":"36-6670089","natureOfBusiness":12,"lat":50.425413,"long":124.118816,"zip":16},
{"key":"d8bc:3b70:4dde:970a:dcf4:6018:49df:8a91/120","name":"Reichel Inc","director":"Emalee Domanski","companyType":0,"industry":3,"isDissolved":false,"incorporated":"10/18/1995","dissolvedDate":"4/14/2019","companyNumber":"43-2580618","natureOfBusiness":10,"lat":50.5699572,"long":17.1493818,"zip":40},
{"key":"3c7f:c498:2c14:dd37:9f97:880b:d784:b754/101","name":"Goyette, Strosin and Gleichner","director":"Matthew Pollard","companyType":1,"industry":0,"isDissolved":true,"incorporated":"3/20/1990","dissolvedDate":"4/12/2018","companyNumber":"29-3328438","natureOfBusiness":11,"lat":-6.1827598,"long":106.8270521,"zip":33},
{"key":"b9dd:c62:c20f:611e:d108:f615:bc86:423c/45","name":"Abernathy Inc","director":"Amalia Parrington","companyType":1,"industry":5,"isDissolved":false,"incorporated":"10/11/2011","dissolvedDate":"2/18/2016","companyNumber":"25-1078286","natureOfBusiness":11,"lat":33.7403041,"long":130.9463113,"zip":3},
{"key":"20f5:f6d3:3511:d00a:65df:966:d8ff:c28f/43","name":"Durgan, Beier and Becker","director":"Gerda Perin","companyType":2,"industry":6,"isDissolved":false,"incorporated":"12/25/1986","dissolvedDate":"10/3/2020","companyNumber":"48-8482582","natureOfBusiness":3,"lat":49.8370072,"long":13.5783393,"zip":36},
{"key":"bcbc:d7ef:841a:ba54:f72:987e:f00b:3ed0/41","name":"Wunsch and Sons","director":"Rosabel Mugg","companyType":0,"industry":7,"isDissolved":false,"incorporated":"10/26/2002","dissolvedDate":"1/28/2023","companyNumber":"93-1841137","natureOfBusiness":12,"lat":28.852393,"long":85.297534,"zip":4},
{"key":"8712:d0aa:16cb:3c50:d723:3bd9:61fe:f9c8/16","name":"Torp, Torp and Schiller","director":"Garrard Crewther","companyType":3,"industry":8,"isDissolved":false,"incorporated":"7/3/1985","dissolvedDate":"11/1/2015","companyNumber":"87-7317433","natureOfBusiness":8,"lat":39.20892,"long":112.68142,"zip":12},
{"key":"548f:7e74:999a:cbdd:fc90:fd6b:2323:82cb/58","name":"Kozey, Tromp and Stanton","director":"Timmy Marqyes","companyType":1,"industry":9,"isDissolved":false,"incorporated":"4/3/1997","dissolvedDate":"8/15/2017","companyNumber":"62-4106588","natureOfBusiness":10,"lat":-34.6787774,"long":-58.6694618,"zip":3},
{"key":"d6e:ebb6:c69b:8df:5117:9400:484b:855/55","name":"Purdy LLC","director":"Alfy Challiss","companyType":2,"industry":7,"isDissolved":true,"incorporated":"10/14/1986","dissolvedDate":"5/28/2019","companyNumber":"08-2675623","natureOfBusiness":0,"lat":36.0720984,"long":49.7013486,"zip":23},
{"key":"3b22:336b:f8b:20:e0fc:d490:daba:94c0/87","name":"Reynolds-Volkman","director":"Al Rushman","companyType":0,"industry":9,"isDissolved":true,"incorporated":"3/9/1979","dissolvedDate":"2/25/2016","companyNumber":"49-4023212","natureOfBusiness":8,"lat":24.094765,"long":116.00509,"zip":3},
{"key":"5a9d:18bd:ba4c:67d:865a:ea3:6b17:2c66/95","name":"Rice-Conn","director":"Florida Babbs","companyType":4,"industry":7,"isDissolved":true,"incorporated":"12/5/1998","dissolvedDate":"2/12/2015","companyNumber":"09-4396440","natureOfBusiness":5,"lat":50.5429237,"long":3.086469,"zip":14},
{"key":"af66:600a:226c:c818:8009:d419:9887:a54b/57","name":"Collins Inc","director":"Ole Boothman","companyType":4,"industry":6,"isDissolved":true,"incorporated":"10/14/2005","dissolvedDate":"8/1/2015","companyNumber":"44-2387231","natureOfBusiness":0,"lat":7.7321516,"long":8.539144,"zip":14},
{"key":"1317:a892:5846:cc:90a8:5a99:20e:ae22/124","name":"Collier-Fisher","director":"Uta Nolda","companyType":1,"industry":1,"isDissolved":true,"incorporated":"7/1/2013","dissolvedDate":"2/15/2022","companyNumber":"17-1649607","natureOfBusiness":8,"lat":45.911222,"long":127.059486,"zip":14},
{"key":"1592:c3fc:2ee1:ee01:e5a3:993:a8bf:8bde/23","name":"Hermann-O'Reilly","director":"Marilin Taill","companyType":0,"industry":5,"isDissolved":false,"incorporated":"1/14/1985","dissolvedDate":"10/16/2020","companyNumber":"17-9900231","natureOfBusiness":4,"lat":45.0030925,"long":43.7825227,"zip":16},
{"key":"e39a:1318:eedf:22c9:3923:844:e78d:b51f/3","name":"Lind, Cole and Marks","director":"Dianne Sauven","companyType":3,"industry":3,"isDissolved":true,"incorporated":"11/10/1991","dissolvedDate":"4/2/2021","companyNumber":"37-4185935","natureOfBusiness":15,"lat":-32.9549324,"long":27.9319131,"zip":6},
{"key":"4d0:af56:2f42:62e3:28a8:a261:2113:e22a/47","name":"Keebler-Goyette","director":"Kippy Lerwell","companyType":1,"industry":0,"isDissolved":false,"incorporated":"3/1/1981","dissolvedDate":"1/22/2018","companyNumber":"45-0562762","natureOfBusiness":14,"lat":-20.1217728,"long":-41.5612423,"zip":10},
{"key":"9cc7:6c7e:16cd:f1d0:fb8:d93f:a2b9:15de/73","name":"McDermott, Johnston and Huel","director":"Fabian Aguirre","companyType":3,"industry":9,"isDissolved":true,"incorporated":"10/22/2007","dissolvedDate":"11/5/2022","companyNumber":"69-0479451","natureOfBusiness":6,"lat":48.4902808,"long":39.2712224,"zip":14},
{"key":"869b:3efc:403:c21e:bff1:13bf:b10c:a6d1/31","name":"Tromp LLC","director":"Vasili Halfacree","companyType":3,"industry":0,"isDissolved":false,"incorporated":"7/6/1986","dissolvedDate":"2/4/2016","companyNumber":"38-9329993","natureOfBusiness":15,"lat":22.354385,"long":110.947043,"zip":45},
{"key":"4093:dc09:514:9553:f11e:998d:8b97:663d/96","name":"Kohler Group","director":"Panchito Meaddowcroft","companyType":1,"industry":1,"isDissolved":true,"incorporated":"7/18/2011","dissolvedDate":"7/11/2018","companyNumber":"00-9401774","natureOfBusiness":9,"lat":48.689836,"long":6.17445,"zip":24},
{"key":"d52:8428:d085:6cf4:472d:da35:2165:1e56/5","name":"Altenwerth LLC","director":"Cherye Karadzas","companyType":0,"industry":0,"isDissolved":true,"incorporated":"9/6/2001","dissolvedDate":"1/2/2022","companyNumber":"27-8353790","natureOfBusiness":3,"lat":-34.5151107,"long":-58.4973265,"zip":29},
{"key":"9eb:e07f:5a35:f087:53e7:89cb:3037:7f8d/96","name":"MacGyver Group","director":"Rolfe Verman","companyType":2,"industry":5,"isDissolved":false,"incorporated":"2/6/1979","dissolvedDate":"11/10/2023","companyNumber":"50-3193400","natureOfBusiness":4,"lat":13.9253961,"long":100.4133581,"zip":9},
{"key":"cb85:8386:823f:9853:9799:d056:65e6:66ff/65","name":"Walter, Waters and Kautzer","director":"Curran Stroder","companyType":0,"industry":4,"isDissolved":true,"incorporated":"10/22/2006","dissolvedDate":"8/29/2023","companyNumber":"69-4682944","natureOfBusiness":15,"lat":37.9525906,"long":23.7464528,"zip":13},
{"key":"1008:b34a:14ee:f383:53c3:a689:dfdd:5ed8/12","name":"Cummings, Bradtke and Heathcote","director":"Helenelizabeth Winship","companyType":3,"industry":8,"isDissolved":true,"incorporated":"2/3/2001","dissolvedDate":"1/24/2021","companyNumber":"14-5365538","natureOfBusiness":2,"lat":55.879456,"long":37.578092,"zip":29},
{"key":"47f8:4916:db7b:2c21:b1f9:4b82:cd32:dcd1/112","name":"Ruecker, Lang and Ortiz","director":"Roland Elsy","companyType":1,"industry":7,"isDissolved":false,"incorporated":"7/27/1978","dissolvedDate":"2/7/2019","companyNumber":"19-2853821","natureOfBusiness":2,"lat":34.746611,"long":113.625328,"zip":6},
{"key":"c98d:c72a:feeb:62f8:5a0a:e6bf:f602:af63/36","name":"Moen-Keebler","director":"Robinet Blackman","companyType":1,"industry":6,"isDissolved":true,"incorporated":"1/1/2010","dissolvedDate":"8/29/2016","companyNumber":"84-7050960","natureOfBusiness":12,"lat":39.08248,"long":117.338649,"zip":3},
{"key":"1d79:70d7:4c4a:543e:c1f8:51e:5938:959d/55","name":"Muller-Ebert","director":"Vernice Binham","companyType":1,"industry":6,"isDissolved":true,"incorporated":"6/4/1981","dissolvedDate":"8/26/2017","companyNumber":"74-4924798","natureOfBusiness":7,"lat":31.9100651,"long":35.949099,"zip":2},
{"key":"a758:8a52:f5fa:aae3:e1d2:9567:681:954b/106","name":"DuBuque-Mayer","director":"Courtenay Dulake","companyType":0,"industry":6,"isDissolved":true,"incorporated":"9/16/1996","dissolvedDate":"1/27/2022","companyNumber":"81-0468636","natureOfBusiness":15,"lat":-7.011204,"long":108.0257828,"zip":34},
{"key":"5b38:2938:e32f:e9fe:f103:988f:ba8d:1855/89","name":"Schroeder, Rodriguez and Maggio","director":"Mahalia Phipard-Shears","companyType":4,"industry":1,"isDissolved":true,"incorporated":"7/25/2010","dissolvedDate":"1/6/2018","companyNumber":"13-9977579","natureOfBusiness":11,"lat":49.7147663,"long":19.4759489,"zip":34},
{"key":"33a:3393:b19d:4239:77c6:2789:7295:3bb8/76","name":"Effertz, Wunsch and McLaughlin","director":"Hazel Bende","companyType":3,"industry":3,"isDissolved":false,"incorporated":"9/25/1997","dissolvedDate":"2/7/2023","companyNumber":"64-8482502","natureOfBusiness":4,"lat":11.5448729,"long":104.8921668,"zip":0},
{"key":"9416:9868:cb1:9cf:6f7:e3fe:3455:62f5/26","name":"Morar Inc","director":"Thomasin Haking","companyType":0,"industry":2,"isDissolved":true,"incorporated":"4/10/1982","dissolvedDate":"4/10/2023","companyNumber":"65-4148588","natureOfBusiness":8,"lat":39.128502,"long":113.139828,"zip":34},
{"key":"2d92:6f9d:640c:e4f2:38bb:bd3f:8440:395b/69","name":"Oberbrunner LLC","director":"Rance MacInerney","companyType":4,"industry":4,"isDissolved":true,"incorporated":"4/8/1989","dissolvedDate":"4/25/2020","companyNumber":"71-0550393","natureOfBusiness":11,"lat":30.67705,"long":120.618585,"zip":30},
{"key":"8931:a981:e068:5b00:1f2f:f3ec:56ec:79ce/83","name":"Beatty, Kunze and Cartwright","director":"Natal Seeley","companyType":4,"industry":2,"isDissolved":true,"incorporated":"12/7/1988","dissolvedDate":"3/27/2019","companyNumber":"17-2188029","natureOfBusiness":1,"lat":49.0525513,"long":17.5271323,"zip":26},
{"key":"a8c6:c897:23ae:52cf:d5ee:eb72:109d:90d1/103","name":"Ortiz, Gorczany and Lemke","director":"Sibeal Flores","companyType":2,"industry":9,"isDissolved":false,"incorporated":"1/27/1986","dissolvedDate":"2/17/2023","companyNumber":"98-8731023","natureOfBusiness":7,"lat":-20.3139411,"long":30.0549683,"zip":32},
{"key":"a7f2:4b25:a63a:1e87:627a:d501:c810:26d9/116","name":"Harvey, Reichel and Marvin","director":"Michaelina McGavigan","companyType":1,"industry":9,"isDissolved":true,"incorporated":"6/7/2006","dissolvedDate":"5/30/2022","companyNumber":"91-6403246","natureOfBusiness":6,"lat":11.5105782,"long":122.0865444,"zip":7},
{"key":"9f85:73fb:d162:ab76:5474:d967:5bdc:3376/124","name":"O'Connell-Feest","director":"Karlene Ruseworth","companyType":0,"industry":8,"isDissolved":true,"incorporated":"1/9/1998","dissolvedDate":"1/7/2016","companyNumber":"53-9786202","natureOfBusiness":6,"lat":55.6084924,"long":73.4882009,"zip":30},
{"key":"99bc:c071:670b:e499:19f6:5f59:6210:cb55/19","name":"Hickle Inc","director":"Adi Tuffell","companyType":4,"industry":0,"isDissolved":true,"incorporated":"8/30/1994","dissolvedDate":"2/21/2022","companyNumber":"42-5524450","natureOfBusiness":15,"lat":-1.3938636,"long":36.7442377,"zip":21},
{"key":"1e51:d084:ccb7:aef8:9079:650e:678c:f7ec/81","name":"Gutmann, Ullrich and Breitenberg","director":"Cosmo Boundley","companyType":0,"industry":7,"isDissolved":false,"incorporated":"1/3/1992","dissolvedDate":"4/10/2023","companyNumber":"09-3506695","natureOfBusiness":0,"lat":59.4744985,"long":18.3007988,"zip":8},
{"key":"6a0a:2ec:4f0d:463d:deee:d52d:e2ed:124b/87","name":"Blick and Sons","director":"Raphaela Glennie","companyType":4,"industry":0,"isDissolved":true,"incorporated":"8/3/2001","dissolvedDate":"12/18/2017","companyNumber":"75-4267694","natureOfBusiness":13,"lat":51.888151,"long":-0.23924,"zip":15},
{"key":"ba0a:288f:a152:6ea5:4e6b:7a0:9ff9:2839/106","name":"Wiegand Inc","director":"Rowena Shearmur","companyType":3,"industry":0,"isDissolved":false,"incorporated":"5/17/1995","dissolvedDate":"5/7/2022","companyNumber":"78-7754663","natureOfBusiness":11,"lat":11.0918578,"long":122.0473054,"zip":37},
{"key":"8daa:37b4:9d93:fc7f:6c08:a536:c931:a0e4/58","name":"Little, Thompson and Hayes","director":"Delores Chettle","companyType":0,"industry":4,"isDissolved":true,"incorporated":"3/13/1992","dissolvedDate":"3/22/2015","companyNumber":"03-7917240","natureOfBusiness":9,"lat":40.9971976,"long":22.5703984,"zip":46},
{"key":"350e:69c9:2b5:ba03:f8aa:569:78f9:95b8/99","name":"Stokes LLC","director":"Lionel Pember","companyType":4,"industry":7,"isDissolved":false,"incorporated":"12/1/1983","dissolvedDate":"5/25/2021","companyNumber":"49-9035245","natureOfBusiness":14,"lat":33.1786556,"long":35.8988626,"zip":14},
{"key":"b384:cb7a:f041:ef1a:704:342:1877:69a5/74","name":"Lubowitz-Jast","director":"Dell Winscum","companyType":4,"industry":4,"isDissolved":true,"incorporated":"7/15/1997","dissolvedDate":"1/27/2023","companyNumber":"37-6365653","natureOfBusiness":9,"lat":-2.0242564,"long":115.5444231,"zip":43},
{"key":"19e5:ecdf:7fce:243b:7238:66cc:619d:1bd4/93","name":"Keebler Inc","director":"Madelina McNeish","companyType":3,"industry":8,"isDissolved":true,"incorporated":"7/30/1984","dissolvedDate":"7/27/2020","companyNumber":"92-1071046","natureOfBusiness":1,"lat":-21.9719784,"long":-51.6528409,"zip":7},
{"key":"8f69:6832:c9f0:970d:9386:d08c:d516:f2a7/63","name":"Kerluke-O'Keefe","director":"Nanni Vardie","companyType":1,"industry":3,"isDissolved":true,"incorporated":"2/24/2001","dissolvedDate":"9/7/2016","companyNumber":"70-4227635","natureOfBusiness":4,"lat":-6.9401945,"long":106.9247932,"zip":29},
{"key":"4145:24be:f7bb:505d:cd04:ad8d:6b7d:e507/92","name":"Mohr-Hane","director":"Cornelius Coupe","companyType":1,"industry":6,"isDissolved":false,"incorporated":"9/9/1987","dissolvedDate":"3/3/2018","companyNumber":"55-4612955","natureOfBusiness":14,"lat":14.7596318,"long":121.0589081,"zip":15},
{"key":"5328:2585:d9e7:5594:995:6bf:2b28:ee46/19","name":"Littel-Pollich","director":"Jay Mackilpatrick","companyType":0,"industry":1,"isDissolved":false,"incorporated":"10/20/2002","dissolvedDate":"8/6/2018","companyNumber":"46-7530218","natureOfBusiness":10,"lat":2.5282234,"long":34.6579985,"zip":43},
{"key":"683f:42f5:b309:c81e:c848:4b17:8b39:d5f1/49","name":"McCullough-Will","director":"Jakie Killby","companyType":0,"industry":5,"isDissolved":true,"incorporated":"7/25/2008","dissolvedDate":"12/11/2022","companyNumber":"55-0250525","natureOfBusiness":15,"lat":37.464539,"long":121.447852,"zip":30},
{"key":"2236:1047:2b06:d5c0:f2c7:2a4c:c4a5:aa2a/88","name":"Swift-Erdman","director":"Bobbie Osburn","companyType":1,"industry":2,"isDissolved":true,"incorporated":"4/12/2003","dissolvedDate":"5/16/2022","companyNumber":"37-1733966","natureOfBusiness":3,"lat":40.513357,"long":96.769073,"zip":38},
{"key":"a81e:6fdd:19bd:8b34:12fd:4b16:a9da:432/98","name":"Conroy Inc","director":"Scarlett Gouldeby","companyType":3,"industry":9,"isDissolved":true,"incorporated":"8/14/1995","dissolvedDate":"3/20/2021","companyNumber":"98-5500420","natureOfBusiness":2,"lat":40.2240899,"long":-7.6500513,"zip":44},
{"key":"8a71:29ee:6626:e19b:23b9:5632:5a5b:627/69","name":"Beahan-Raynor","director":"Jewelle Strawbridge","companyType":0,"industry":1,"isDissolved":true,"incorporated":"10/11/1992","dissolvedDate":"4/18/2018","companyNumber":"14-4984730","natureOfBusiness":8,"lat":-33.5482466,"long":-71.6045745,"zip":15},
{"key":"36b3:8983:f90e:b07d:5622:5a21:c6fe:79c1/88","name":"Schuster, Breitenberg and Nikolaus","director":"Amalita Pocke","companyType":4,"industry":1,"isDissolved":true,"incorporated":"2/25/1998","dissolvedDate":"8/11/2022","companyNumber":"88-5840436","natureOfBusiness":0,"lat":11.5399857,"long":-85.6986957,"zip":5},
{"key":"dcec:11e6:7928:47d1:4226:2f97:b21d:527/74","name":"Lesch-Becker","director":"Tiebold Clarridge","companyType":1,"industry":2,"isDissolved":false,"incorporated":"2/7/1984","dissolvedDate":"12/12/2016","companyNumber":"06-4022080","natureOfBusiness":1,"lat":39.600532,"long":116.032938,"zip":14},
{"key":"6731:4535:df03:e936:75eb:b2a0:24e9:f4a/88","name":"Reinger, Hane and Block","director":"Janeen Gionettitti","companyType":4,"industry":9,"isDissolved":true,"incorporated":"11/16/1983","dissolvedDate":"2/24/2018","companyNumber":"06-8777744","natureOfBusiness":7,"lat":59.3475695,"long":18.0441996,"zip":2},
{"key":"b704:7993:15cb:54e8:66c1:677d:f2b3:60c1/37","name":"Metz-Rosenbaum","director":"Cherin Braunle","companyType":1,"industry":8,"isDissolved":true,"incorporated":"1/15/1991","dissolvedDate":"12/1/2017","companyNumber":"12-2506395","natureOfBusiness":16,"lat":12.6107413,"long":122.2756648,"zip":21},
{"key":"5cd7:ee78:8ff4:816b:3cdc:a6b0:10c5:791e/81","name":"Rutherford-Russel","director":"Nike Blissett","companyType":1,"industry":7,"isDissolved":true,"incorporated":"4/21/1986","dissolvedDate":"9/8/2018","companyNumber":"95-4066585","natureOfBusiness":7,"lat":10.2214803,"long":-71.3111773,"zip":10},
{"key":"e1d7:7ec2:b4ee:7a92:71ae:82da:d444:2d7/97","name":"Dickens and Sons","director":"Codi Cornock","companyType":1,"industry":0,"isDissolved":false,"incorporated":"3/26/2006","dissolvedDate":"2/1/2021","companyNumber":"95-4988948","natureOfBusiness":6,"lat":-8.6436471,"long":122.2001457,"zip":36},
{"key":"84cf:6e1a:59d0:ef45:1aa8:8c48:7de0:f1a8/25","name":"Zboncak-Jaskolski","director":"Eliot Aspel","companyType":4,"industry":6,"isDissolved":true,"incorporated":"12/8/1982","dissolvedDate":"4/13/2016","companyNumber":"70-5517074","natureOfBusiness":5,"lat":48.1504081,"long":-1.6807958,"zip":29},
{"key":"cdef:3c8a:38d1:8d19:e696:139d:511b:3ef8/46","name":"Willms Inc","director":"Beverlie Heskins","companyType":4,"industry":3,"isDissolved":true,"incorporated":"2/11/2011","dissolvedDate":"5/11/2019","companyNumber":"04-6153634","natureOfBusiness":2,"lat":47.2154159,"long":5.9471867,"zip":4},
{"key":"442d:e414:3a86:bd7d:c72b:e3a2:fc9:43f3/5","name":"Farrell Group","director":"Ronnie Eake","companyType":1,"industry":6,"isDissolved":true,"incorporated":"10/13/2011","dissolvedDate":"3/28/2023","companyNumber":"42-9019904","natureOfBusiness":12,"lat":17.7302207,"long":121.4674111,"zip":32},
{"key":"b178:1246:c21a:5a0c:2553:44d2:e740:c28c/88","name":"Gleason Group","director":"Garrot Mobius","companyType":3,"industry":3,"isDissolved":true,"incorporated":"9/5/1992","dissolvedDate":"7/24/2023","companyNumber":"18-6150812","natureOfBusiness":4,"lat":28.695534,"long":116.664056,"zip":18},
{"key":"56f4:a7a8:94e6:b866:92d7:25f:1655:e2f4/108","name":"Gibson, Schmeler and Oberbrunner","director":"Caleb Lardeur","companyType":2,"industry":9,"isDissolved":false,"incorporated":"8/14/2013","dissolvedDate":"4/6/2015","companyNumber":"33-8100627","natureOfBusiness":4,"lat":-26.459383,"long":27.8604472,"zip":22},
{"key":"a870:54e8:4896:ae1f:d143:c3a3:de1:d3cd/50","name":"Pacocha-Medhurst","director":"Sheba Manz","companyType":2,"industry":9,"isDissolved":true,"incorporated":"6/3/1978","dissolvedDate":"5/2/2021","companyNumber":"46-3185807","natureOfBusiness":3,"lat":12.7494718,"long":4.5366582,"zip":0},
{"key":"8419:7a2d:d981:5e7e:28c3:b82d:71e7:2f9a/79","name":"Hyatt, Luettgen and Schuppe","director":"Gerladina Laughton","companyType":2,"industry":9,"isDissolved":false,"incorporated":"5/19/2005","dissolvedDate":"2/11/2016","companyNumber":"69-0890102","natureOfBusiness":10,"lat":14.7268634,"long":100.7830826,"zip":11},